{
"type": "FeatureCollection",
"name": "world_places",
"crs": { "type": "name", "properties": { "name": "urn:ogc:def:crs:OGC:1.3:CRS84" } },
"features": [
{ "type": "Feature", "properties": { "FEATURECLA": "Admin-1 capital", "NAME": "Colonia del Sacramento", "NAME_EN": "Colonia del Sacramento", "NAME_JA": "コロニア・デル・サクラメント", "id": 0 }, "geometry": { "type": "Point", "coordinates": [ -57.836116004496425, -34.469787716602944 ] } },
{ "type": "Feature", "properties": { "FEATURECLA": "Admin-1 capital", "NAME": "Trinidad", "NAME_EN": "Trinidad", "NAME_JA": "トリニダ", "id": 1 }, "geometry": { "type": "Point", "coordinates": [ -56.9009966, -33.5439989 ] } },
{ "type": "Feature", "properties": { "FEATURECLA": "Admin-1 capital", "NAME": "Fray Bentos", "NAME_EN": "Fray Bentos", "NAME_JA": "フライ・ベントス", "id": 2 }, "geometry": { "type": "Point", "coordinates": [ -58.3039975, -33.138999 ] } },
{ "type": "Feature", "properties": { "FEATURECLA": "Admin-1 capital", "NAME": "Canelones", "NAME_EN": "Canelones", "NAME_JA": "カネローネス", "id": 3 }, "geometry": { "type": "Point", "coordinates": [ -56.2840015, -34.538004 ] } },
{ "type": "Feature", "properties": { "FEATURECLA": "Admin-1 capital", "NAME": "Florida", "NAME_EN": "Florida", "NAME_JA": "フロリダ", "id": 4 }, "geometry": { "type": "Point", "coordinates": [ -56.2149984, -34.099002 ] } },
{ "type": "Feature", "properties": { "FEATURECLA": "Admin-1 capital", "NAME": "Bassar", "NAME_EN": "Bassar", "NAME_JA": "バサッリ", "id": 5 }, "geometry": { "type": "Point", "coordinates": [ 0.7890036, 9.2610001 ] } },
{ "type": "Feature", "properties": { "FEATURECLA": "Admin-1 capital", "NAME": "Sotouboua", "NAME_EN": "Sotouboua", "NAME_JA": "ソトゥブア", "id": 6 }, "geometry": { "type": "Point", "coordinates": [ 0.9849965, 8.5570021 ] } },
{ "type": "Feature", "properties": { "FEATURECLA": "Admin-1 capital", "NAME": "Medenine", "NAME_EN": "Medenine", "NAME_JA": "メドニン", "id": 7 }, "geometry": { "type": "Point", "coordinates": [ 10.4166996, 33.399999 ] } },
{ "type": "Feature", "properties": { "FEATURECLA": "Admin-1 capital", "NAME": "Kebili", "NAME_EN": "Kebili", "NAME_JA": "ケビリ", "id": 8 }, "geometry": { "type": "Point", "coordinates": [ 8.9710025, 33.689997 ] } },
{ "type": "Feature", "properties": { "FEATURECLA": "Admin-1 capital", "NAME": "Tataouine", "NAME_EN": "Tataouine", "NAME_JA": "タタウイヌ", "id": 9 }, "geometry": { "type": "Point", "coordinates": [ 10.4667036, 33.0000032 ] } },
{ "type": "Feature", "properties": { "FEATURECLA": "Admin-1 capital", "NAME": "L'Ariana", "NAME_EN": "Aryanah", "NAME_JA": "アリアナ", "id": 10 }, "geometry": { "type": "Point", "coordinates": [ 10.1999975, 36.8666732 ] } },
{ "type": "Feature", "properties": { "FEATURECLA": "Admin-1 capital", "NAME": "Jendouba", "NAME_EN": "Jendouba", "NAME_JA": "ジェンドゥーバ", "id": 11 }, "geometry": { "type": "Point", "coordinates": [ 8.7499986, 36.5000041 ] } },
{ "type": "Feature", "properties": { "FEATURECLA": "Admin-1 capital", "NAME": "Kasserine", "NAME_EN": "Kasserine", "NAME_JA": "カスリーヌ", "id": 12 }, "geometry": { "type": "Point", "coordinates": [ 8.7166985, 35.2167031 ] } },
{ "type": "Feature", "properties": { "FEATURECLA": "Admin-1 capital", "NAME": "Sdid Bouzid", "NAME_EN": "Sidi Bouzid", "NAME_JA": "シディ・ブジド", "id": 13 }, "geometry": { "type": "Point", "coordinates": [ 9.5000045, 35.0166961 ] } },
{ "type": "Feature", "properties": { "FEATURECLA": "Admin-1 capital", "NAME": "Siliana", "NAME_EN": "Siliana", "NAME_JA": "シリアナ", "id": 14 }, "geometry": { "type": "Point", "coordinates": [ 9.3833016, 36.0833041 ] } },
{ "type": "Feature", "properties": { "FEATURECLA": "Admin-1 capital", "NAME": "Mahdia", "NAME_EN": "Mahdia", "NAME_JA": "マーディア", "id": 15 }, "geometry": { "type": "Point", "coordinates": [ 11.0408766, 35.483913 ] } },
{ "type": "Feature", "properties": { "FEATURECLA": "Admin-1 capital", "NAME": "Monastir", "NAME_EN": "Monastir", "NAME_JA": "モナスティル", "id": 16 }, "geometry": { "type": "Point", "coordinates": [ 10.7672946, 35.7307021 ] } },
{ "type": "Feature", "properties": { "FEATURECLA": "Admin-1 capital", "NAME": "Zaghouan", "NAME_EN": "Zaghouan", "NAME_JA": "ザグーアン", "id": 17 }, "geometry": { "type": "Point", "coordinates": [ 10.1469966, 36.3999962 ] } },
{ "type": "Feature", "properties": { "FEATURECLA": "Admin-1 capital", "NAME": "Tây Ninh", "NAME_EN": "Tây Ninh", "NAME_JA": "タイニン", "id": 18 }, "geometry": { "type": "Point", "coordinates": [ 106.1469997, 11.3229991 ] } },
{ "type": "Feature", "properties": { "FEATURECLA": "Admin-1 capital", "NAME": "Luan Chau", "NAME_EN": "Luan Chau", "NAME_JA": "ルアンチャウ", "id": 19 }, "geometry": { "type": "Point", "coordinates": [ 103.3430047, 21.740004 ] } },
{ "type": "Feature", "properties": { "FEATURECLA": "Admin-1 capital", "NAME": "Bắc Kạn", "NAME_EN": "Bắc Kạn", "NAME_JA": "バックカン", "id": 20 }, "geometry": { "type": "Point", "coordinates": [ 105.8333333, 22.1333333 ] } },
{ "type": "Feature", "properties": { "FEATURECLA": "Admin-1 capital", "NAME": "Lạng Sơn", "NAME_EN": "Lạng Sơn", "NAME_JA": "ランソン市", "id": 21 }, "geometry": { "type": "Point", "coordinates": [ 106.7570016, 21.8459971 ] } },
{ "type": "Feature", "properties": { "FEATURECLA": "Admin-1 capital", "NAME": "Sơn La", "NAME_EN": "Sơn La", "NAME_JA": "ソンラ", "id": 22 }, "geometry": { "type": "Point", "coordinates": [ 103.9100047, 21.3280021 ] } },
{ "type": "Feature", "properties": { "FEATURECLA": "Admin-1 capital", "NAME": "Tuyên Quang", "NAME_EN": "Tuyên Quang", "NAME_JA": "トゥエンクアン", "id": 23 }, "geometry": { "type": "Point", "coordinates": [ 105.2109996, 21.8179981 ] } },
{ "type": "Feature", "properties": { "FEATURECLA": "Admin-1 capital", "NAME": "Yên Bái", "NAME_EN": "Yên Bái", "NAME_JA": "イエンバイ", "id": 24 }, "geometry": { "type": "Point", "coordinates": [ 104.8750026, 21.705003 ] } },
{ "type": "Feature", "properties": { "FEATURECLA": "Admin-1 capital", "NAME": "Hai Duong", "NAME_EN": "Hải Dương", "NAME_JA": "ハイズオン", "id": 25 }, "geometry": { "type": "Point", "coordinates": [ 106.3310046, 20.9420011 ] } },
{ "type": "Feature", "properties": { "FEATURECLA": "Admin-1 capital", "NAME": "Thái Bình", "NAME_EN": "Thái Bình", "NAME_JA": "タイビン", "id": 26 }, "geometry": { "type": "Point", "coordinates": [ 106.3330296, 20.4503041 ] } },
{ "type": "Feature", "properties": { "FEATURECLA": "Admin-1 capital", "NAME": "Tuy Hòa", "NAME_EN": "Tuy Hòa", "NAME_JA": "トゥイホア", "id": 27 }, "geometry": { "type": "Point", "coordinates": [ 109.3159987, 13.082004 ] } },
{ "type": "Feature", "properties": { "FEATURECLA": "Admin-1 capital", "NAME": "Thu Dau Mot", "NAME_EN": "Thủ Dầu Một", "NAME_JA": "トゥーザウモット", "id": 28 }, "geometry": { "type": "Point", "coordinates": [ 106.6527455, 10.9690741 ] } },
{ "type": "Feature", "properties": { "FEATURECLA": "Admin-1 capital", "NAME": "Đông Hà", "NAME_EN": "Đông Hà", "NAME_JA": "ドンハ", "id": 29 }, "geometry": { "type": "Point", "coordinates": [ 107.1333007, 16.8499981 ] } },
{ "type": "Feature", "properties": { "FEATURECLA": "Admin-1 capital", "NAME": "Cao Lãnh", "NAME_EN": "Cao Lãnh", "NAME_JA": "カオライン", "id": 30 }, "geometry": { "type": "Point", "coordinates": [ 105.6359976, 10.4670001 ] } },
{ "type": "Feature", "properties": { "FEATURECLA": "Admin-1 capital", "NAME": "Truc Giang", "NAME_EN": "Bến Tre", "NAME_JA": "ベンチェ", "id": 31 }, "geometry": { "type": "Point", "coordinates": [ 106.3749966, 10.234998 ] } },
{ "type": "Feature", "properties": { "FEATURECLA": "Admin-1 capital", "NAME": "Tra Vinh", "NAME_EN": "Trà Vinh", "NAME_JA": "チャーヴィン", "id": 32 }, "geometry": { "type": "Point", "coordinates": [ 106.3340017, 9.9340021 ] } },
{ "type": "Feature", "properties": { "FEATURECLA": "Admin-1 capital", "NAME": "Vĩnh Long", "NAME_EN": "Vĩnh Long", "NAME_JA": "ヴィンロン", "id": 33 }, "geometry": { "type": "Point", "coordinates": [ 105.9640026, 10.256004 ] } },
{ "type": "Feature", "properties": { "FEATURECLA": "Admin-1 capital", "NAME": "Cao Bằng", "NAME_EN": "Cao Bằng", "NAME_JA": "カオバン", "id": 34 }, "geometry": { "type": "Point", "coordinates": [ 106.2680046, 22.6639981 ] } },
{ "type": "Feature", "properties": { "FEATURECLA": "Admin-1 capital", "NAME": "Yoro", "NAME_EN": "Yoro", "NAME_JA": "ヨロ", "id": 35 }, "geometry": { "type": "Point", "coordinates": [ -87.12850166584191, 15.129829181166658 ] } },
{ "type": "Feature", "properties": { "FEATURECLA": "Admin-1 capital", "NAME": "La Esperanza", "NAME_EN": "La Esperanza", "NAME_JA": "ラ・エスペランサ", "id": 36 }, "geometry": { "type": "Point", "coordinates": [ -88.1666995, 14.3330041 ] } },
{ "type": "Feature", "properties": { "FEATURECLA": "Admin-1 capital", "NAME": "La Paz", "NAME_EN": "La Paz", "NAME_JA": "ラパス", "id": 37 }, "geometry": { "type": "Point", "coordinates": [ -87.6840026, 14.319999 ] } },
{ "type": "Feature", "properties": { "FEATURECLA": "Admin-1 capital", "NAME": "Santa Bárbara", "NAME_EN": "Santa Bárbara", "NAME_JA": "サンタ・バルバラ", "id": 38 }, "geometry": { "type": "Point", "coordinates": [ -88.2359996, 14.919003 ] } },
{ "type": "Feature", "properties": { "FEATURECLA": "Admin-1 capital", "NAME": "Gracias", "NAME_EN": "Gracias", "NAME_JA": "グラシアス", "id": 39 }, "geometry": { "type": "Point", "coordinates": [ -88.5833005, 14.5833031 ] } },
{ "type": "Feature", "properties": { "FEATURECLA": "Admin-1 capital", "NAME": "Nueva Ocotepeque", "NAME_EN": "Nueva Ocotepeque", "NAME_JA": "ヌエバ・オコテペケ", "id": 40 }, "geometry": { "type": "Point", "coordinates": [ -89.1819985, 14.4369991 ] } },
{ "type": "Feature", "properties": { "FEATURECLA": "Admin-1 capital", "NAME": "Yuscarán", "NAME_EN": "Yuscarán", "NAME_JA": "ユスカラン", "id": 41 }, "geometry": { "type": "Point", "coordinates": [ -86.8509985, 13.943997 ] } },
{ "type": "Feature", "properties": { "FEATURECLA": "Admin-1 capital", "NAME": "Jérémie", "NAME_EN": "Jérémie", "NAME_JA": "ジェレミー", "id": 42 }, "geometry": { "type": "Point", "coordinates": [ -74.1184253, 18.6339347 ] } },
{ "type": "Feature", "properties": { "FEATURECLA": "Admin-1 capital", "NAME": "Port-De-Paix", "NAME_EN": "Port-de-Paix", "NAME_JA": "ポールドペ", "id": 43 }, "geometry": { "type": "Point", "coordinates": [ -72.8294845, 19.9317601 ] } },
{ "type": "Feature", "properties": { "FEATURECLA": "Admin-1 capital", "NAME": "Hinche", "NAME_EN": "Hinche", "NAME_JA": "アンシュ", "id": 44 }, "geometry": { "type": "Point", "coordinates": [ -72.0039956, 19.1430001 ] } },
{ "type": "Feature", "properties": { "FEATURECLA": "Admin-1 capital", "NAME": "Fort-Liberté", "NAME_EN": "Fort-Liberté", "NAME_JA": "フォールリベルテ", "id": 45 }, "geometry": { "type": "Point", "coordinates": [ -71.8448395, 19.665567 ] } },
{ "type": "Feature", "properties": { "FEATURECLA": "Admin-1 capital", "NAME": "Jacmel", "NAME_EN": "Jacmel", "NAME_JA": "ジャクメル", "id": 46 }, "geometry": { "type": "Point", "coordinates": [ -72.5370026, 18.234999 ] } },
{ "type": "Feature", "properties": { "FEATURECLA": "Admin-1 capital", "NAME": "Kırklareli", "NAME_EN": "Kırklareli", "NAME_JA": "クルクラーレリ", "id": 47 }, "geometry": { "type": "Point", "coordinates": [ 27.2259996, 41.7429992 ] } },
{ "type": "Feature", "properties": { "FEATURECLA": "Admin-1 capital", "NAME": "Bilecik", "NAME_EN": "Bilecik", "NAME_JA": "ビレジク", "id": 48 }, "geometry": { "type": "Point", "coordinates": [ 29.9829966, 40.149999 ] } },
{ "type": "Feature", "properties": { "FEATURECLA": "Admin-1 capital", "NAME": "Sakarya", "NAME_EN": "Adapazarı", "NAME_JA": "アダパザル", "id": 49 }, "geometry": { "type": "Point", "coordinates": [ 30.4000025, 40.7666611 ] } },
{ "type": "Feature", "properties": { "FEATURECLA": "Admin-1 capital", "NAME": "Kastamonu", "NAME_EN": "Kastamonu", "NAME_JA": "カスタモヌ", "id": 50 }, "geometry": { "type": "Point", "coordinates": [ 33.7830035, 41.3890022 ] } },
{ "type": "Feature", "properties": { "FEATURECLA": "Admin-1 capital", "NAME": "Burdur", "NAME_EN": "Burdur", "NAME_JA": "ブルドゥル", "id": 51 }, "geometry": { "type": "Point", "coordinates": [ 30.2833355, 37.7166601 ] } },
{ "type": "Feature", "properties": { "FEATURECLA": "Admin-1 capital", "NAME": "Kırşehir", "NAME_EN": "Kırşehir", "NAME_JA": "クルシェヒル", "id": 52 }, "geometry": { "type": "Point", "coordinates": [ 34.1710026, 39.1419992 ] } },
{ "type": "Feature", "properties": { "FEATURECLA": "Admin-1 capital", "NAME": "Nevşehir", "NAME_EN": "Nevşehir", "NAME_JA": "ネヴシェヒル", "id": 53 }, "geometry": { "type": "Point", "coordinates": [ 34.7239985, 38.624004 ] } },
{ "type": "Feature", "properties": { "FEATURECLA": "Admin-1 capital", "NAME": "Antakya", "NAME_EN": "Antakya", "NAME_JA": "アンタキヤ", "id": 54 }, "geometry": { "type": "Point", "coordinates": [ 36.1166766, 36.2333341 ] } },
{ "type": "Feature", "properties": { "FEATURECLA": "Admin-1 capital", "NAME": "Giresun", "NAME_EN": "Giresun", "NAME_JA": "ギレスン", "id": 55 }, "geometry": { "type": "Point", "coordinates": [ 38.3900045, 40.9130011 ] } },
{ "type": "Feature", "properties": { "FEATURECLA": "Admin-1 capital", "NAME": "Sinop", "NAME_EN": "Sinop", "NAME_JA": "スィノプ", "id": 56 }, "geometry": { "type": "Point", "coordinates": [ 35.1530015, 42.022998 ] } },
{ "type": "Feature", "properties": { "FEATURECLA": "Admin-1 capital", "NAME": "Tokat", "NAME_EN": "Tokat", "NAME_JA": "トカット", "id": 57 }, "geometry": { "type": "Point", "coordinates": [ 36.5630045, 40.3059962 ] } },
{ "type": "Feature", "properties": { "FEATURECLA": "Admin-1 capital", "NAME": "Artvin", "NAME_EN": "Artvin", "NAME_JA": "アルトヴィン", "id": 58 }, "geometry": { "type": "Point", "coordinates": [ 41.8179965, 41.1830011 ] } },
{ "type": "Feature", "properties": { "FEATURECLA": "Admin-1 capital", "NAME": "Bingöl", "NAME_EN": "Bingöl", "NAME_JA": "ビンギョル", "id": 59 }, "geometry": { "type": "Point", "coordinates": [ 40.4980026, 38.885004 ] } },
{ "type": "Feature", "properties": { "FEATURECLA": "Admin-1 capital", "NAME": "Bitlis", "NAME_EN": "Bitlis", "NAME_JA": "ビトリス", "id": 60 }, "geometry": { "type": "Point", "coordinates": [ 42.1229976, 38.3940001 ] } },
{ "type": "Feature", "properties": { "FEATURECLA": "Admin-1 capital", "NAME": "Kalangala", "NAME_EN": "Kalangala", "NAME_JA": "カランガラ", "id": 61 }, "geometry": { "type": "Point", "coordinates": [ 32.225, -0.3088889 ] } },
{ "type": "Feature", "properties": { "FEATURECLA": "Admin-1 capital", "NAME": "Çankırı", "NAME_EN": "Çankırı", "NAME_JA": "チャンクル", "id": 62 }, "geometry": { "type": "Point", "coordinates": [ 33.6210036, 40.607001 ] } },
{ "type": "Feature", "properties": { "FEATURECLA": "Admin-1 capital", "NAME": "Niğde", "NAME_EN": "Niğde", "NAME_JA": "ニーデ", "id": 63 }, "geometry": { "type": "Point", "coordinates": [ 34.6940016, 37.9760041 ] } },
{ "type": "Feature", "properties": { "FEATURECLA": "Admin-1 capital", "NAME": "Yozgat", "NAME_EN": "Yozgat", "NAME_JA": "ヨズガト", "id": 64 }, "geometry": { "type": "Point", "coordinates": [ 34.8149975, 39.8179981 ] } },
{ "type": "Feature", "properties": { "FEATURECLA": "Admin-1 capital", "NAME": "Gümüşhane", "NAME_EN": "Gümüşhane", "NAME_JA": "ギュミュシュハーネ", "id": 65 }, "geometry": { "type": "Point", "coordinates": [ 39.4839996, 40.4640001 ] } },
{ "type": "Feature", "properties": { "FEATURECLA": "Admin-1 capital", "NAME": "Siirt", "NAME_EN": "Siirt", "NAME_JA": "スィイルト", "id": 66 }, "geometry": { "type": "Point", "coordinates": [ 41.9329986, 37.9440001 ] } },
{ "type": "Feature", "properties": { "FEATURECLA": "Admin-1 capital", "NAME": "Tunceli", "NAME_EN": "Tunceli", "NAME_JA": "トゥンジェリ", "id": 67 }, "geometry": { "type": "Point", "coordinates": [ 39.5333015, 39.1167 ] } },
{ "type": "Feature", "properties": { "FEATURECLA": "Admin-1 capital", "NAME": "Kumi", "NAME_EN": "Kumi Town", "NAME_JA": "クミ", "id": 68 }, "geometry": { "type": "Point", "coordinates": [ 33.9361111, 1.4608333 ] } },
{ "type": "Feature", "properties": { "FEATURECLA": "Admin-1 capital", "NAME": "Kaberamaido", "NAME_EN": "Kaberamaido", "NAME_JA": "カベラマイド", "id": 69 }, "geometry": { "type": "Point", "coordinates": [ 33.1594444, 1.7388889 ] } },
{ "type": "Feature", "properties": { "FEATURECLA": "Admin-1 capital", "NAME": "Kayunga", "NAME_EN": "Kayunga", "NAME_JA": "カユンガ", "id": 70 }, "geometry": { "type": "Point", "coordinates": [ 32.8886111, 0.7025 ] } },
{ "type": "Feature", "properties": { "FEATURECLA": "Admin-1 capital", "NAME": "Iganga", "NAME_EN": "Iganga", "NAME_JA": "イガンガ", "id": 71 }, "geometry": { "type": "Point", "coordinates": [ 33.4686111, 0.6091667 ] } },
{ "type": "Feature", "properties": { "FEATURECLA": "Admin-1 capital", "NAME": "Kamuli", "NAME_EN": "Kamuli", "NAME_JA": "カムリ", "id": 72 }, "geometry": { "type": "Point", "coordinates": [ 33.1197222, 0.9472222 ] } },
{ "type": "Feature", "properties": { "FEATURECLA": "Admin-1 capital", "NAME": "Pallisa", "NAME_EN": "Pallisa", "NAME_JA": "パリサ", "id": 73 }, "geometry": { "type": "Point", "coordinates": [ 33.7094444, 1.145 ] } },
{ "type": "Feature", "properties": { "FEATURECLA": "Admin-1 capital", "NAME": "Mpigi", "NAME_EN": "Mpigi", "NAME_JA": "ムピギ", "id": 74 }, "geometry": { "type": "Point", "coordinates": [ 32.3136111, 0.225 ] } },
{ "type": "Feature", "properties": { "FEATURECLA": "Admin-1 capital", "NAME": "Adjumani", "NAME_EN": "Adjumani", "NAME_JA": "アジュマニ", "id": 75 }, "geometry": { "type": "Point", "coordinates": [ 31.8097222, 3.3613889 ] } },
{ "type": "Feature", "properties": { "FEATURECLA": "Admin-1 capital", "NAME": "Nebbi", "NAME_EN": "Nebbi", "NAME_JA": "ネビ", "id": 76 }, "geometry": { "type": "Point", "coordinates": [ 31.1025, 2.4758333 ] } },
{ "type": "Feature", "properties": { "FEATURECLA": "Admin-1 capital", "NAME": "Kiboga", "NAME_EN": "Kiboga", "NAME_JA": "キボガ", "id": 77 }, "geometry": { "type": "Point", "coordinates": [ 31.7741667, 0.9161111 ] } },
{ "type": "Feature", "properties": { "FEATURECLA": "Admin-1 capital", "NAME": "Nakasongola", "NAME_EN": "Nakasongola", "NAME_JA": "ナカソンゴラ", "id": 78 }, "geometry": { "type": "Point", "coordinates": [ 32.4563889, 1.3088889 ] } },
{ "type": "Feature", "properties": { "FEATURECLA": "Admin-1 region capital", "NAME": "Bombo", "NAME_EN": "Bombo", "NAME_JA": "ボンボ", "id": 79 }, "geometry": { "type": "Point", "coordinates": [ 32.5332995, 0.5832991 ] } },
{ "type": "Feature", "properties": { "FEATURECLA": "Admin-1 capital", "NAME": "Masindi", "NAME_EN": "Masindi", "NAME_JA": "マシンディ", "id": 80 }, "geometry": { "type": "Point", "coordinates": [ 31.715, 1.6744444 ] } },
{ "type": "Feature", "properties": { "FEATURECLA": "Admin-1 region capital", "NAME": "Fort Portal", "NAME_EN": "Fort Portal", "NAME_JA": "フォート・ポータル", "id": 81 }, "geometry": { "type": "Point", "coordinates": [ 30.2750016, 0.6710041 ] } },
{ "type": "Feature", "properties": { "FEATURECLA": "Admin-1 capital", "NAME": "Kibale", "NAME_EN": "Kibaale", "NAME_JA": "キバレ", "id": 82 }, "geometry": { "type": "Point", "coordinates": [ 31.0666667, 0.8 ] } },
{ "type": "Feature", "properties": { "FEATURECLA": "Admin-1 capital", "NAME": "Sironko", "NAME_EN": "Sironko", "NAME_JA": "シロンコ", "id": 83 }, "geometry": { "type": "Point", "coordinates": [ 34.3, 1.25 ] } },
{ "type": "Feature", "properties": { "FEATURECLA": "Admin-1 capital", "NAME": "Busia", "NAME_EN": "Busia", "NAME_JA": "ブシア", "id": 84 }, "geometry": { "type": "Point", "coordinates": [ 34.0758333, 0.4544444 ] } },
{ "type": "Feature", "properties": { "FEATURECLA": "Admin-1 capital", "NAME": "Katakwi", "NAME_EN": "Katakwi", "NAME_JA": "カタクイ", "id": 85 }, "geometry": { "type": "Point", "coordinates": [ 33.9661111, 1.8911111 ] } },
{ "type": "Feature", "properties": { "FEATURECLA": "Admin-1 capital", "NAME": "Veszprém", "NAME_EN": "Veszprém", "NAME_JA": "ヴェスプレーム", "id": 86 }, "geometry": { "type": "Point", "coordinates": [ 17.9109996, 47.0909971 ] } },
{ "type": "Feature", "properties": { "FEATURECLA": "Admin-1 capital", "NAME": "Zalaegerszeg", "NAME_EN": "Zalaegerszeg", "NAME_JA": "ザラエゲルセグ", "id": 87 }, "geometry": { "type": "Point", "coordinates": [ 16.8399996, 46.844001 ] } },
{ "type": "Feature", "properties": { "FEATURECLA": "Admin-1 capital", "NAME": "Tatabánya", "NAME_EN": "Tatabánya", "NAME_JA": "タタバーニャ", "id": 88 }, "geometry": { "type": "Point", "coordinates": [ 18.4329996, 47.5499972 ] } },
{ "type": "Feature", "properties": { "FEATURECLA": "Admin-1 capital", "NAME": "Szekszárd", "NAME_EN": "Szekszárd", "NAME_JA": "セクサールド", "id": 89 }, "geometry": { "type": "Point", "coordinates": [ 18.7129986, 46.3439971 ] } },
{ "type": "Feature", "properties": { "FEATURECLA": "Admin-1 capital", "NAME": "Salgótarján", "NAME_EN": "Salgótarján", "NAME_JA": "シャルゴータルヤーン", "id": 90 }, "geometry": { "type": "Point", "coordinates": [ 19.8260016, 48.1050001 ] } },
{ "type": "Feature", "properties": { "FEATURECLA": "Admin-1 capital", "NAME": "Békéscsaba", "NAME_EN": "Békéscsaba", "NAME_JA": "ベーケーシュチャバ", "id": 91 }, "geometry": { "type": "Point", "coordinates": [ 21.1010046, 46.6720021 ] } },
{ "type": "Feature", "properties": { "FEATURECLA": "Admin-1 capital", "NAME": "Eger", "NAME_EN": "Eger", "NAME_JA": "エゲル", "id": 92 }, "geometry": { "type": "Point", "coordinates": [ 20.3830026, 47.8950031 ] } },
{ "type": "Feature", "properties": { "FEATURECLA": "Admin-1 capital", "NAME": "Ntungamo", "NAME_EN": "Ntungamo", "NAME_JA": "ントゥンガモ", "id": 93 }, "geometry": { "type": "Point", "coordinates": [ 30.2641667, -0.8794444 ] } },
{ "type": "Feature", "properties": { "FEATURECLA": "Admin-1 capital", "NAME": "Kisoro", "NAME_EN": "Kisoro", "NAME_JA": "キソロ", "id": 94 }, "geometry": { "type": "Point", "coordinates": [ 29.6983333, -1.3538889 ] } },
{ "type": "Feature", "properties": { "FEATURECLA": "Admin-1 capital", "NAME": "Gikongoro", "NAME_EN": "Gikongoro", "NAME_JA": "ギコンゴロ", "id": 95 }, "geometry": { "type": "Point", "coordinates": [ 29.5667016, -2.4832979 ] } },
{ "type": "Feature", "properties": { "FEATURECLA": "Admin-1 capital", "NAME": "Kibuye", "NAME_EN": "Kibuye", "NAME_JA": "キブエ", "id": 96 }, "geometry": { "type": "Point", "coordinates": [ 29.3499996, -2.050002 ] } },
{ "type": "Feature", "properties": { "FEATURECLA": "Admin-1 capital", "NAME": "Kibungo", "NAME_EN": "Kibungo", "NAME_JA": "キブンゴ", "id": 97 }, "geometry": { "type": "Point", "coordinates": [ 30.5333016, -2.1666959 ] } },
{ "type": "Feature", "properties": { "FEATURECLA": "Admin-1 capital", "NAME": "Târgu Jiu", "NAME_EN": "Târgu Jiu", "NAME_JA": "トゥルグ・ジウ", "id": 98 }, "geometry": { "type": "Point", "coordinates": [ 23.2740006, 45.045 ] } },
{ "type": "Feature", "properties": { "FEATURECLA": "Admin-1 capital", "NAME": "Slatina", "NAME_EN": "Slatina", "NAME_JA": "スラティナ", "id": 99 }, "geometry": { "type": "Point", "coordinates": [ 24.3710016, 44.4349981 ] } },
{ "type": "Feature", "properties": { "FEATURECLA": "Admin-1 capital", "NAME": "Alexandria", "NAME_EN": "Alexandria", "NAME_JA": "アレクサンドリア", "id": 100 }, "geometry": { "type": "Point", "coordinates": [ 25.329884897537326, 43.974370136043639 ] } },
{ "type": "Feature", "properties": { "FEATURECLA": "Admin-1 capital", "NAME": "Târgoviște", "NAME_EN": "Târgoviște", "NAME_JA": "トゥルゴヴィシュテ", "id": 101 }, "geometry": { "type": "Point", "coordinates": [ 25.4590025, 44.9379991 ] } },
{ "type": "Feature", "properties": { "FEATURECLA": "Admin-1 capital", "NAME": "Giurgiu", "NAME_EN": "Giurgiu", "NAME_JA": "ジュルジュ", "id": 102 }, "geometry": { "type": "Point", "coordinates": [ 25.96632527518501, 43.90180698686904 ] } },
{ "type": "Feature", "properties": { "FEATURECLA": "Admin-1 capital", "NAME": "Slobozia", "NAME_EN": "Slobozia", "NAME_JA": "スロボジア", "id": 103 }, "geometry": { "type": "Point", "coordinates": [ 27.3819966, 44.5699981 ] } },
{ "type": "Feature", "properties": { "FEATURECLA": "Admin-1 capital", "NAME": "Dar'a", "NAME_EN": "Daraa", "NAME_JA": "ダルアー", "id": 104 }, "geometry": { "type": "Point", "coordinates": [ 36.1050035, 32.6250001 ] } },
{ "type": "Feature", "properties": { "FEATURECLA": "Admin-1 capital", "NAME": "Delémont", "NAME_EN": "Delémont", "NAME_JA": "ドレモン", "id": 105 }, "geometry": { "type": "Point", "coordinates": [ 7.3449995, 47.3699971 ] } },
{ "type": "Feature", "properties": { "FEATURECLA": "Admin-1 capital", "NAME": "Neuchâtel", "NAME_EN": "Neuchâtel", "NAME_JA": "ヌーシャテル", "id": 106 }, "geometry": { "type": "Point", "coordinates": [ 6.9229986, 46.9989991 ] } },
{ "type": "Feature", "properties": { "FEATURECLA": "Admin-1 capital", "NAME": "Aarau", "NAME_EN": "Aarau", "NAME_JA": "アーラウ", "id": 107 }, "geometry": { "type": "Point", "coordinates": [ 8.0340036, 47.3900041 ] } },
{ "type": "Feature", "properties": { "FEATURECLA": "Admin-1 capital", "NAME": "Stans", "NAME_EN": "Stans", "NAME_JA": "シュタンス", "id": 108 }, "geometry": { "type": "Point", "coordinates": [ 8.3833025, 46.9500031 ] } },
{ "type": "Feature", "properties": { "FEATURECLA": "Admin-1 capital", "NAME": "Sion", "NAME_EN": "Sion", "NAME_JA": "シオン", "id": 109 }, "geometry": { "type": "Point", "coordinates": [ 7.3539995, 46.239003 ] } },
{ "type": "Feature", "properties": { "FEATURECLA": "Admin-1 capital", "NAME": "Herisau", "NAME_EN": "Herisau", "NAME_JA": "ヘリザウ", "id": 110 }, "geometry": { "type": "Point", "coordinates": [ 9.2833025, 47.383299 ] } },
{ "type": "Feature", "properties": { "FEATURECLA": "Admin-1 capital", "NAME": "Saint Gallen", "NAME_EN": "St. Gallen", "NAME_JA": "ザンクト・ガレン", "id": 111 }, "geometry": { "type": "Point", "coordinates": [ 9.3619986, 47.4229981 ] } },
{ "type": "Feature", "properties": { "FEATURECLA": "Admin-1 capital", "NAME": "Bellinzona", "NAME_EN": "Bellinzona", "NAME_JA": "ベッリンツォーナ", "id": 112 }, "geometry": { "type": "Point", "coordinates": [ 9.0199986, 46.1970001 ] } },
{ "type": "Feature", "properties": { "FEATURECLA": "Admin-1 capital", "NAME": "Glarus", "NAME_EN": "Glarus", "NAME_JA": "グラールス", "id": 113 }, "geometry": { "type": "Point", "coordinates": [ 9.0666996, 47.050002 ] } },
{ "type": "Feature", "properties": { "FEATURECLA": "Admin-1 capital", "NAME": "Schaffhausen", "NAME_EN": "Schaffhausen", "NAME_JA": "シャフハウゼン", "id": 114 }, "geometry": { "type": "Point", "coordinates": [ 8.6329985, 47.7060031 ] } },
{ "type": "Feature", "properties": { "FEATURECLA": "Admin-1 capital", "NAME": "Schwyz", "NAME_EN": "Schwyz", "NAME_JA": "シュヴィーツ", "id": 115 }, "geometry": { "type": "Point", "coordinates": [ 8.6480016, 47.019996 ] } },
{ "type": "Feature", "properties": { "FEATURECLA": "Admin-1 capital", "NAME": "Frauenfeld", "NAME_EN": "Frauenfeld", "NAME_JA": "フラウエンフェルト", "id": 116 }, "geometry": { "type": "Point", "coordinates": [ 8.904888469310368, 47.552619422656129 ] } },
{ "type": "Feature", "properties": { "FEATURECLA": "Admin-1 capital", "NAME": "Altdorf", "NAME_EN": "Altdorf", "NAME_JA": "アルトドルフ", "id": 117 }, "geometry": { "type": "Point", "coordinates": [ 8.6380026, 46.8790021 ] } },
{ "type": "Feature", "properties": { "FEATURECLA": "Admin-1 capital", "NAME": "Zug", "NAME_EN": "Zug", "NAME_JA": "ツーク", "id": 118 }, "geometry": { "type": "Point", "coordinates": [ 8.4870006, 47.178999 ] } },
{ "type": "Feature", "properties": { "FEATURECLA": "Admin-1 capital", "NAME": "Falun", "NAME_EN": "Falun", "NAME_JA": "ファールン", "id": 119 }, "geometry": { "type": "Point", "coordinates": [ 15.6470046, 60.613002 ] } },
{ "type": "Feature", "properties": { "FEATURECLA": "Admin-1 capital", "NAME": "Nyköping", "NAME_EN": "Nyköping", "NAME_JA": "ニーシェピング", "id": 120 }, "geometry": { "type": "Point", "coordinates": [ 16.996082309454142, 58.751989933602339 ] } },
{ "type": "Feature", "properties": { "FEATURECLA": "Admin-1 capital", "NAME": "Härnösand", "NAME_EN": "Härnösand", "NAME_JA": "ヘーノーサンド", "id": 121 }, "geometry": { "type": "Point", "coordinates": [ 17.9340036, 62.633997 ] } },
{ "type": "Feature", "properties": { "FEATURECLA": "Admin-1 capital", "NAME": "Karlskrona", "NAME_EN": "Karlskrona", "NAME_JA": "カールスクルーナ", "id": 122 }, "geometry": { "type": "Point", "coordinates": [ 15.590754198529854, 56.162780641493903 ] } },
{ "type": "Feature", "properties": { "FEATURECLA": "Admin-1 capital", "NAME": "Alba Lulia", "NAME_EN": "Alba Iulia", "NAME_JA": "アルバ・ユリア", "id": 123 }, "geometry": { "type": "Point", "coordinates": [ 23.5800006, 46.0770031 ] } },
{ "type": "Feature", "properties": { "FEATURECLA": "Admin-1 capital", "NAME": "Bistrița", "NAME_EN": "Bistrița", "NAME_JA": "ビストリツァ", "id": 124 }, "geometry": { "type": "Point", "coordinates": [ 24.5130036, 47.1380041 ] } },
{ "type": "Feature", "properties": { "FEATURECLA": "Admin-1 capital", "NAME": "Deva", "NAME_EN": "Deva", "NAME_JA": "デヴァ", "id": 125 }, "geometry": { "type": "Point", "coordinates": [ 22.9166736, 45.883323 ] } },
{ "type": "Feature", "properties": { "FEATURECLA": "Admin-1 capital", "NAME": "Zalău", "NAME_EN": "Zalău", "NAME_JA": "ザラウ", "id": 126 }, "geometry": { "type": "Point", "coordinates": [ 23.0630045, 47.1750031 ] } },
{ "type": "Feature", "properties": { "FEATURECLA": "Admin-1 capital", "NAME": "Satu Mare", "NAME_EN": "Satu Mare", "NAME_JA": "サトゥ・マーレ", "id": 127 }, "geometry": { "type": "Point", "coordinates": [ 22.8850025, 47.7919982 ] } },
{ "type": "Feature", "properties": { "FEATURECLA": "Admin-1 capital", "NAME": "Rimnicu Vilcea", "NAME_EN": "Râmnicu Vâlcea", "NAME_JA": "ルムニク・ヴルチャ", "id": 128 }, "geometry": { "type": "Point", "coordinates": [ 24.3829986, 45.109998 ] } },
{ "type": "Feature", "properties": { "FEATURECLA": "Admin-1 capital", "NAME": "Sfintu-Gheorghe", "NAME_EN": "Sfântu Gheorghe", "NAME_JA": "スフントゥ・ゲオルゲ", "id": 129 }, "geometry": { "type": "Point", "coordinates": [ 25.7930015, 45.8679961 ] } },
{ "type": "Feature", "properties": { "FEATURECLA": "Admin-1 capital", "NAME": "Miercurea Cuic", "NAME_EN": "Miercurea Ciuc", "NAME_JA": "ミエルクレア＝チュク", "id": 130 }, "geometry": { "type": "Point", "coordinates": [ 25.5240005, 46.3609981 ] } },
{ "type": "Feature", "properties": { "FEATURECLA": "Admin-1 capital", "NAME": "Piatra-Neamt", "NAME_EN": "Piatra Neamț", "NAME_JA": "ピアトラ・ネアムツ", "id": 131 }, "geometry": { "type": "Point", "coordinates": [ 26.3829966, 46.9400041 ] } },
{ "type": "Feature", "properties": { "FEATURECLA": "Admin-1 capital", "NAME": "Brăila", "NAME_EN": "Brăila", "NAME_JA": "ブライラ", "id": 132 }, "geometry": { "type": "Point", "coordinates": [ 27.9690035, 45.2919961 ] } },
{ "type": "Feature", "properties": { "FEATURECLA": "Admin-1 capital", "NAME": "Vaslui", "NAME_EN": "Vaslui", "NAME_JA": "ヴァスルイ", "id": 133 }, "geometry": { "type": "Point", "coordinates": [ 27.7333386, 46.6333291 ] } },
{ "type": "Feature", "properties": { "FEATURECLA": "Admin-1 capital", "NAME": "Salyan", "NAME_EN": "Salyan", "NAME_JA": "サリャーン", "id": 134 }, "geometry": { "type": "Point", "coordinates": [ 82.1833026, 28.35 ] } },
{ "type": "Feature", "properties": { "FEATURECLA": "Admin-1 capital", "NAME": "Mae Hong Son", "NAME_EN": "Mae Hong Son", "NAME_JA": "メーホーンソーン", "id": 135 }, "geometry": { "type": "Point", "coordinates": [ 97.9689967, 19.3010041 ] } },
{ "type": "Feature", "properties": { "FEATURECLA": "Admin-1 capital", "NAME": "Phangnga", "NAME_EN": "Phang Nga", "NAME_JA": "パンガー", "id": 136 }, "geometry": { "type": "Point", "coordinates": [ 98.5339986, 8.4510001 ] } },
{ "type": "Feature", "properties": { "FEATURECLA": "Admin-1 capital", "NAME": "Ranong", "NAME_EN": "Ranong", "NAME_JA": "ラノーン", "id": 137 }, "geometry": { "type": "Point", "coordinates": [ 98.6380026, 9.9620011 ] } },
{ "type": "Feature", "properties": { "FEATURECLA": "Admin-1 capital", "NAME": "Krabi", "NAME_EN": "Krabi", "NAME_JA": "クラビー", "id": 138 }, "geometry": { "type": "Point", "coordinates": [ 98.9119987, 8.0520031 ] } },
{ "type": "Feature", "properties": { "FEATURECLA": "Admin-1 capital", "NAME": "Phatthalung", "NAME_EN": "Phatthalung", "NAME_JA": "パッタルン", "id": 139 }, "geometry": { "type": "Point", "coordinates": [ 100.0809996, 7.614999 ] } },
{ "type": "Feature", "properties": { "FEATURECLA": "Admin-1 capital", "NAME": "Satun", "NAME_EN": "Satun", "NAME_JA": "サトゥン", "id": 140 }, "geometry": { "type": "Point", "coordinates": [ 100.0666986, 6.6167011 ] } },
{ "type": "Feature", "properties": { "FEATURECLA": "Admin-1 capital", "NAME": "Lamphun", "NAME_EN": "Lamphun", "NAME_JA": "ランフン", "id": 141 }, "geometry": { "type": "Point", "coordinates": [ 99.00705227721275, 18.573985128315552 ] } },
{ "type": "Feature", "properties": { "FEATURECLA": "Admin-1 capital", "NAME": "Kamphaeng Phet", "NAME_EN": "Kamphaeng Phet", "NAME_JA": "カンフェンペット", "id": 142 }, "geometry": { "type": "Point", "coordinates": [ 99.5290027, 16.472997 ] } },
{ "type": "Feature", "properties": { "FEATURECLA": "Admin-1 capital", "NAME": "Phichit", "NAME_EN": "Phichit", "NAME_JA": "ピチット", "id": 143 }, "geometry": { "type": "Point", "coordinates": [ 100.3490017, 16.439004 ] } },
{ "type": "Feature", "properties": { "FEATURECLA": "Admin-1 capital", "NAME": "Phetchabun", "NAME_EN": "Phetchabun", "NAME_JA": "ペッチャブーン", "id": 144 }, "geometry": { "type": "Point", "coordinates": [ 101.1590017, 16.4189971 ] } },
{ "type": "Feature", "properties": { "FEATURECLA": "Admin-1 capital", "NAME": "Supham Buri", "NAME_EN": "Suphan Buri", "NAME_JA": "スファンブリ", "id": 145 }, "geometry": { "type": "Point", "coordinates": [ 100.1289966, 14.471001 ] } },
{ "type": "Feature", "properties": { "FEATURECLA": "Admin-1 capital", "NAME": "Ang Thong", "NAME_EN": "Ang Thong", "NAME_JA": "アントン", "id": 146 }, "geometry": { "type": "Point", "coordinates": [ 100.4499997, 14.5833031 ] } },
{ "type": "Feature", "properties": { "FEATURECLA": "Admin-1 capital", "NAME": "Chainat", "NAME_EN": "Chai Nat", "NAME_JA": "チャイナート", "id": 147 }, "geometry": { "type": "Point", "coordinates": [ 100.1259997, 15.179004 ] } },
{ "type": "Feature", "properties": { "FEATURECLA": "Admin-1 capital", "NAME": "Nakhon Nayok", "NAME_EN": "Nakhon Nayok", "NAME_JA": "ナコンナヨク", "id": 148 }, "geometry": { "type": "Point", "coordinates": [ 101.2159987, 14.200002 ] } },
{ "type": "Feature", "properties": { "FEATURECLA": "Admin-1 capital", "NAME": "Sing Buri", "NAME_EN": "Sing Buri", "NAME_JA": "シンブリー", "id": 149 }, "geometry": { "type": "Point", "coordinates": [ 100.4010036, 14.886999 ] } },
{ "type": "Feature", "properties": { "FEATURECLA": "Admin-1 capital", "NAME": "Nakhon Pathom", "NAME_EN": "Nakhon Pathom", "NAME_JA": "ナコーンパトム", "id": 150 }, "geometry": { "type": "Point", "coordinates": [ 100.0639986, 13.8179971 ] } },
{ "type": "Feature", "properties": { "FEATURECLA": "Admin-1 capital", "NAME": "Prachuap Khiri Khan", "NAME_EN": "Prachuap Khiri Khan", "NAME_JA": "プラチュワップ・キーリー・カン", "id": 151 }, "geometry": { "type": "Point", "coordinates": [ 99.8000017, 11.802996 ] } },
{ "type": "Feature", "properties": { "FEATURECLA": "Admin-1 capital", "NAME": "Samut Sakhon", "NAME_EN": "Samut Sakhon", "NAME_JA": "サムットサーコーン", "id": 152 }, "geometry": { "type": "Point", "coordinates": [ 100.2740046, 13.536 ] } },
{ "type": "Feature", "properties": { "FEATURECLA": "Admin-1 capital", "NAME": "Samut Songkhram", "NAME_EN": "Samut Songkhram", "NAME_JA": "サムットソンクラーム", "id": 153 }, "geometry": { "type": "Point", "coordinates": [ 100.0009986, 13.412997 ] } },
{ "type": "Feature", "properties": { "FEATURECLA": "Admin-1 capital", "NAME": "Yasothon", "NAME_EN": "Yasothon", "NAME_JA": "ヤソソン", "id": 154 }, "geometry": { "type": "Point", "coordinates": [ 104.1509977, 15.7879981 ] } },
{ "type": "Feature", "properties": { "FEATURECLA": "Admin-1 capital", "NAME": "Chachoengsao", "NAME_EN": "Chachoengsao", "NAME_JA": "チャチューンサオ", "id": 155 }, "geometry": { "type": "Point", "coordinates": [ 101.0760037, 13.6790011 ] } },
{ "type": "Feature", "properties": { "FEATURECLA": "Admin-1 capital", "NAME": "Trat", "NAME_EN": "Trat", "NAME_JA": "トラート", "id": 156 }, "geometry": { "type": "Point", "coordinates": [ 102.5090016, 12.2370031 ] } },
{ "type": "Feature", "properties": { "FEATURECLA": "Admin-1 capital", "NAME": "Kalasin", "NAME_EN": "Kalasin", "NAME_JA": "カラシン", "id": 157 }, "geometry": { "type": "Point", "coordinates": [ 103.5090007, 16.4279971 ] } },
{ "type": "Feature", "properties": { "FEATURECLA": "Admin-1 capital", "NAME": "Maha Sarakham", "NAME_EN": "Maha Sarakham", "NAME_JA": "マハサラカム", "id": 158 }, "geometry": { "type": "Point", "coordinates": [ 103.2980045, 16.183998 ] } },
{ "type": "Feature", "properties": { "FEATURECLA": "Admin-1 capital", "NAME": "Roi Et", "NAME_EN": "Roi Et", "NAME_JA": "テーサバーンムアン・ローイエット", "id": 159 }, "geometry": { "type": "Point", "coordinates": [ 103.6549986, 16.050996 ] } },
{ "type": "Feature", "properties": { "FEATURECLA": "Admin-1 capital", "NAME": "Pattani", "NAME_EN": "Pattani", "NAME_JA": "パタニ", "id": 160 }, "geometry": { "type": "Point", "coordinates": [ 101.2500006, 6.864003 ] } },
{ "type": "Feature", "properties": { "FEATURECLA": "Admin-1 capital", "NAME": "Piggs Peak", "NAME_EN": "Piggs Peak", "NAME_JA": "ピッグズ・ピーク", "id": 161 }, "geometry": { "type": "Point", "coordinates": [ 31.2470015, -25.961004 ] } },
{ "type": "Feature", "properties": { "FEATURECLA": "Admin-1 capital", "NAME": "Siteki", "NAME_EN": "Siteki", "NAME_JA": "シテキ", "id": 162 }, "geometry": { "type": "Point", "coordinates": [ 31.9519986, -26.454996 ] } },
{ "type": "Feature", "properties": { "FEATURECLA": "Admin-1 capital", "NAME": "Manzini", "NAME_EN": "Manzini", "NAME_JA": "マンジニ", "id": 163 }, "geometry": { "type": "Point", "coordinates": [ 31.3880045, -26.4950011 ] } },
{ "type": "Feature", "properties": { "FEATURECLA": "Admin-1 capital", "NAME": "Hlatikulu", "NAME_EN": "Hlatikulu", "NAME_JA": "ハラティクル", "id": 164 }, "geometry": { "type": "Point", "coordinates": [ 31.310136968462931, -26.96081493079398 ] } },
{ "type": "Feature", "properties": { "FEATURECLA": "Admin-1 capital", "NAME": "Somoto", "NAME_EN": "Somoto", "NAME_JA": "ソモト", "id": 165 }, "geometry": { "type": "Point", "coordinates": [ -86.5829966, 13.4759971 ] } },
{ "type": "Feature", "properties": { "FEATURECLA": "Admin-1 capital", "NAME": "Ocotal", "NAME_EN": "Ocotal", "NAME_JA": "オコタル", "id": 166 }, "geometry": { "type": "Point", "coordinates": [ -86.4729986, 13.629996 ] } },
{ "type": "Feature", "properties": { "FEATURECLA": "Admin-1 capital", "NAME": "Aveiro", "NAME_EN": "Aveiro", "NAME_JA": "アヴェイロ", "id": 167 }, "geometry": { "type": "Point", "coordinates": [ -8.6509975, 40.6410031 ] } },
{ "type": "Feature", "properties": { "FEATURECLA": "Admin-1 capital", "NAME": "Leiria", "NAME_EN": "Leiria", "NAME_JA": "レイリア", "id": 168 }, "geometry": { "type": "Point", "coordinates": [ -8.8049965, 39.738996 ] } },
{ "type": "Feature", "properties": { "FEATURECLA": "Admin-1 capital", "NAME": "Viana Do Castelo", "NAME_EN": "Viana do Castelo", "NAME_JA": "ヴィアナ・ド・カステロ", "id": 169 }, "geometry": { "type": "Point", "coordinates": [ -8.8441375, 41.6962351 ] } },
{ "type": "Feature", "properties": { "FEATURECLA": "Admin-1 capital", "NAME": "Mérida", "NAME_EN": "Mérida", "NAME_JA": "メリダ", "id": 170 }, "geometry": { "type": "Point", "coordinates": [ -6.3379975, 38.912004 ] } },
{ "type": "Feature", "properties": { "FEATURECLA": "Admin-1 capital", "NAME": "Beja", "NAME_EN": "Beja", "NAME_JA": "ベージャ", "id": 171 }, "geometry": { "type": "Point", "coordinates": [ -7.8630024, 38.0140021 ] } },
{ "type": "Feature", "properties": { "FEATURECLA": "Admin-1 capital", "NAME": "Évora", "NAME_EN": "Évora", "NAME_JA": "エヴォラ", "id": 172 }, "geometry": { "type": "Point", "coordinates": [ -7.9059956, 38.5599961 ] } },
{ "type": "Feature", "properties": { "FEATURECLA": "Admin-1 capital", "NAME": "Portalegre", "NAME_EN": "Portalegre", "NAME_JA": "ポルタレグレ", "id": 173 }, "geometry": { "type": "Point", "coordinates": [ -7.4230015, 39.2900041 ] } },
{ "type": "Feature", "properties": { "FEATURECLA": "Admin-1 capital", "NAME": "Santarém", "NAME_EN": "Santarém", "NAME_JA": "サンタレン", "id": 174 }, "geometry": { "type": "Point", "coordinates": [ -8.6820026, 39.2310001 ] } },
{ "type": "Feature", "properties": { "FEATURECLA": "Admin-1 capital", "NAME": "Bragança", "NAME_EN": "Bragança", "NAME_JA": "ブラガンサ", "id": 175 }, "geometry": { "type": "Point", "coordinates": [ -6.7550034, 41.807997 ] } },
{ "type": "Feature", "properties": { "FEATURECLA": "Admin-1 capital", "NAME": "Castelo Branco", "NAME_EN": "Castelo Branco", "NAME_JA": "カステロ・ブランコ", "id": 176 }, "geometry": { "type": "Point", "coordinates": [ -7.4879996, 39.8109961 ] } },
{ "type": "Feature", "properties": { "FEATURECLA": "Admin-1 capital", "NAME": "Guarda", "NAME_EN": "Guarda", "NAME_JA": "グアルダ", "id": 177 }, "geometry": { "type": "Point", "coordinates": [ -7.2620005, 40.5410041 ] } },
{ "type": "Feature", "properties": { "FEATURECLA": "Admin-1 capital", "NAME": "Viseu", "NAME_EN": "Viseu", "NAME_JA": "ヴィゼウ", "id": 178 }, "geometry": { "type": "Point", "coordinates": [ -7.9100004, 40.6569961 ] } },
{ "type": "Feature", "properties": { "FEATURECLA": "Admin-1 capital", "NAME": "Vila Real", "NAME_EN": "Vila Real", "NAME_JA": "ヴィラ・レアル", "id": 179 }, "geometry": { "type": "Point", "coordinates": [ -7.7370025, 41.2939981 ] } },
{ "type": "Feature", "properties": { "FEATURECLA": "Admin-1 capital", "NAME": "Fatick", "NAME_EN": "Fatick", "NAME_JA": "ファティック", "id": 180 }, "geometry": { "type": "Point", "coordinates": [ -16.4159995, 14.3440021 ] } },
{ "type": "Feature", "properties": { "FEATURECLA": "Admin-1 capital", "NAME": "An Nabk", "NAME_EN": "Nabk", "NAME_JA": "ナブク", "id": 181 }, "geometry": { "type": "Point", "coordinates": [ 37.3332965, 31.333302 ] } },
{ "type": "Feature", "properties": { "FEATURECLA": "Admin-1 capital", "NAME": "Assen", "NAME_EN": "Assen", "NAME_JA": "アッセン", "id": 182 }, "geometry": { "type": "Point", "coordinates": [ 6.5500026, 53.0000011 ] } },
{ "type": "Feature", "properties": { "FEATURECLA": "Admin-1 capital", "NAME": "Arnhem", "NAME_EN": "Arnhem", "NAME_JA": "アーネム", "id": 183 }, "geometry": { "type": "Point", "coordinates": [ 5.9229996, 51.987996 ] } },
{ "type": "Feature", "properties": { "FEATURECLA": "Admin-1 capital", "NAME": "Maastricht", "NAME_EN": "Maastricht", "NAME_JA": "マーストリヒト", "id": 184 }, "geometry": { "type": "Point", "coordinates": [ 5.6770025, 50.8529971 ] } },
{ "type": "Feature", "properties": { "FEATURECLA": "Admin-1 capital", "NAME": "Zwolle", "NAME_EN": "Zwolle", "NAME_JA": "ズヴォレ", "id": 185 }, "geometry": { "type": "Point", "coordinates": [ 6.0969965, 52.5240001 ] } },
{ "type": "Feature", "properties": { "FEATURECLA": "Admin-1 capital", "NAME": "Middelburg", "NAME_EN": "Middelburg", "NAME_JA": "ミデルブルフ", "id": 186 }, "geometry": { "type": "Point", "coordinates": [ 3.6099995, 51.5019962 ] } },
{ "type": "Feature", "properties": { "FEATURECLA": "Admin-1 capital", "NAME": "'s-Hertogenbosch", "NAME_EN": "'s-Hertogenbosch", "NAME_JA": "スヘルトーヘンボス", "id": 187 }, "geometry": { "type": "Point", "coordinates": [ 5.3166605, 51.6833371 ] } },
{ "type": "Feature", "properties": { "FEATURECLA": "Admin-1 capital", "NAME": "Arendal", "NAME_EN": "Arendal", "NAME_JA": "アーレンダール", "id": 188 }, "geometry": { "type": "Point", "coordinates": [ 8.7660006, 58.4647561 ] } },
{ "type": "Feature", "properties": { "FEATURECLA": "Admin-1 capital", "NAME": "Vossavangen", "NAME_EN": "Vossevangen", "NAME_JA": "ボスバンゲン", "id": 189 }, "geometry": { "type": "Point", "coordinates": [ 6.4410035, 60.6300032 ] } },
{ "type": "Feature", "properties": { "FEATURECLA": "Admin-1 capital", "NAME": "Leikanger", "NAME_EN": "Leikanger", "NAME_JA": "ライカンゲル", "id": 190 }, "geometry": { "type": "Point", "coordinates": [ 6.8499995, 61.1832961 ] } },
{ "type": "Feature", "properties": { "FEATURECLA": "Admin-1 capital", "NAME": "Bærum", "NAME_EN": "Bærum", "NAME_JA": "バールム", "id": 191 }, "geometry": { "type": "Point", "coordinates": [ 11.3472365, 59.9134861 ] } },
{ "type": "Feature", "properties": { "FEATURECLA": "Admin-1 capital", "NAME": "Hamar", "NAME_EN": "Hamar", "NAME_JA": "ハーマル", "id": 192 }, "geometry": { "type": "Point", "coordinates": [ 11.0690016, 60.8200021 ] } },
{ "type": "Feature", "properties": { "FEATURECLA": "Admin-1 capital", "NAME": "Tønsberg", "NAME_EN": "Tønsberg", "NAME_JA": "トンスベルグ", "id": 193 }, "geometry": { "type": "Point", "coordinates": [ 10.4210015, 59.2640011 ] } },
{ "type": "Feature", "properties": { "FEATURECLA": "Admin-1 capital", "NAME": "Baglung", "NAME_EN": "Baglung", "NAME_JA": "バグルン", "id": 194 }, "geometry": { "type": "Point", "coordinates": [ 83.5832976, 28.2666961 ] } },
{ "type": "Feature", "properties": { "FEATURECLA": "Admin-1 capital", "NAME": "Jumla", "NAME_EN": "Jumla", "NAME_JA": "ジュムラ", "id": 195 }, "geometry": { "type": "Point", "coordinates": [ 82.2167016, 29.2500001 ] } },
{ "type": "Feature", "properties": { "FEATURECLA": "Admin-1 capital", "NAME": "Bhairawa", "NAME_EN": "Siddharthanagar", "NAME_JA": "シッダルタナガル", "id": 196 }, "geometry": { "type": "Point", "coordinates": [ 83.3832995, 27.5333041 ] } },
{ "type": "Feature", "properties": { "FEATURECLA": "Admin-1 capital", "NAME": "Dandeldhura", "NAME_EN": "Dadeldhura", "NAME_JA": "ダンデルドゥラ", "id": 197 }, "geometry": { "type": "Point", "coordinates": [ 80.6000045, 29.3000042 ] } },
{ "type": "Feature", "properties": { "FEATURECLA": "Admin-1 capital", "NAME": "Dhangarhi", "NAME_EN": "Dhangadhi", "NAME_JA": "ダンガルヒ", "id": 198 }, "geometry": { "type": "Point", "coordinates": [ 80.5930026, 28.6949971 ] } },
{ "type": "Feature", "properties": { "FEATURECLA": "Admin-1 capital", "NAME": "Ramechhap", "NAME_EN": "Ramechhap", "NAME_JA": "ラメチャップ", "id": 199 }, "geometry": { "type": "Point", "coordinates": [ 86.0869985, 27.3259981 ] } },
{ "type": "Feature", "properties": { "FEATURECLA": "Admin-1 capital", "NAME": "Bhimphedi", "NAME_EN": "Bhimfedi", "NAME_JA": "ビンフェディ", "id": 200 }, "geometry": { "type": "Point", "coordinates": [ 85.1300016, 27.5509981 ] } },
{ "type": "Feature", "properties": { "FEATURECLA": "Admin-1 capital", "NAME": "Rajbiraj", "NAME_EN": "Rajbiraj", "NAME_JA": "ラジビラージ", "id": 201 }, "geometry": { "type": "Point", "coordinates": [ 86.7332976, 26.5332961 ] } },
{ "type": "Feature", "properties": { "FEATURECLA": "Admin-1 capital", "NAME": "Ilam", "NAME_EN": "Ilam", "NAME_JA": "イラーム", "id": 202 }, "geometry": { "type": "Point", "coordinates": [ 87.9260045, 26.9080021 ] } },
{ "type": "Feature", "properties": { "FEATURECLA": "Admin-1 capital", "NAME": "Wabag", "NAME_EN": "Wabag", "NAME_JA": "ワバック", "id": 203 }, "geometry": { "type": "Point", "coordinates": [ 143.7180037, -5.49 ] } },
{ "type": "Feature", "properties": { "FEATURECLA": "Admin-1 capital", "NAME": "Vanimo", "NAME_EN": "Vanimo", "NAME_JA": "ヴァニモ", "id": 204 }, "geometry": { "type": "Point", "coordinates": [ 141.3039966, -2.6900009 ] } },
{ "type": "Feature", "properties": { "FEATURECLA": "Admin-1 capital", "NAME": "Kundiawa", "NAME_EN": "Kundiawa", "NAME_JA": "クンディアワ", "id": 205 }, "geometry": { "type": "Point", "coordinates": [ 144.9600127, -6.0229979 ] } },
{ "type": "Feature", "properties": { "FEATURECLA": "Admin-1 capital", "NAME": "Kerema", "NAME_EN": "Kerema", "NAME_JA": "ケレマ", "id": 206 }, "geometry": { "type": "Point", "coordinates": [ 145.837998700000014, -7.9270019 ] } },
{ "type": "Feature", "properties": { "FEATURECLA": "Admin-1 capital", "NAME": "Arawa", "NAME_EN": "Arawa", "NAME_JA": "アラワ", "id": 207 }, "geometry": { "type": "Point", "coordinates": [ 155.565990699999986, -6.228 ] } },
{ "type": "Feature", "properties": { "FEATURECLA": "Admin-1 capital", "NAME": "Lorengau", "NAME_EN": "Lorengau", "NAME_JA": "ローレンガウ", "id": 208 }, "geometry": { "type": "Point", "coordinates": [ 147.2799966, -2.032002 ] } },
{ "type": "Feature", "properties": { "FEATURECLA": "Admin-1 capital", "NAME": "Kimbe", "NAME_EN": "Kimbe", "NAME_JA": "キンベ", "id": 209 }, "geometry": { "type": "Point", "coordinates": [ 150.143013700000012, -5.5500029 ] } },
{ "type": "Feature", "properties": { "FEATURECLA": "Admin-1 capital", "NAME": "Dubăsari", "NAME_EN": "Dubăsari", "NAME_JA": "ドゥベサリ", "id": 210 }, "geometry": { "type": "Point", "coordinates": [ 29.1608333, 47.2630556 ] } },
{ "type": "Feature", "properties": { "FEATURECLA": "Admin-1 capital", "NAME": "Qacha's Nek", "NAME_EN": "Qacha's Nek", "NAME_JA": "クァクハスネック", "id": 211 }, "geometry": { "type": "Point", "coordinates": [ 28.7019995, -30.1172669 ] } },
{ "type": "Feature", "properties": { "FEATURECLA": "Admin-1 capital", "NAME": "Hudur", "NAME_EN": "Hudur", "NAME_JA": "フドゥール", "id": 212 }, "geometry": { "type": "Point", "coordinates": [ 43.8667026, 4.183299 ] } },
{ "type": "Feature", "properties": { "FEATURECLA": "Admin-1 capital", "NAME": "Garbahaarey", "NAME_EN": "Garbahaareey", "NAME_JA": "ガーバハレ", "id": 213 }, "geometry": { "type": "Point", "coordinates": [ 42.2270016, 3.3270031 ] } },
{ "type": "Feature", "properties": { "FEATURECLA": "Admin-1 capital", "NAME": "Bu'aale", "NAME_EN": "Bu'ale", "NAME_JA": "ブアレ", "id": 214 }, "geometry": { "type": "Point", "coordinates": [ 42.5833025, 1.083303 ] } },
{ "type": "Feature", "properties": { "FEATURECLA": "Admin-1 capital", "NAME": "Dhuusa Mareeb", "NAME_EN": "Dusmareb", "NAME_JA": "ドゥサマレブ", "id": 215 }, "geometry": { "type": "Point", "coordinates": [ 46.382174120011776, 5.531982307123475 ] } },
{ "type": "Feature", "properties": { "FEATURECLA": "Admin-1 capital", "NAME": "Trincomalee", "NAME_EN": "Trincomalee", "NAME_JA": "トリンコマリー", "id": 216 }, "geometry": { "type": "Point", "coordinates": [ 81.2330016, 8.568999 ] } },
{ "type": "Feature", "properties": { "FEATURECLA": "Admin-1 capital", "NAME": "Puttalan", "NAME_EN": "Puttalam", "NAME_JA": "プッタラム", "id": 217 }, "geometry": { "type": "Point", "coordinates": [ 79.8260045, 8.0330041 ] } },
{ "type": "Feature", "properties": { "FEATURECLA": "Admin-1 capital", "NAME": "Ratnapura", "NAME_EN": "Ratnapura", "NAME_JA": "ラトゥナプラ", "id": 218 }, "geometry": { "type": "Point", "coordinates": [ 80.3860026, 6.6930031 ] } },
{ "type": "Feature", "properties": { "FEATURECLA": "Admin-1 capital", "NAME": "Umuahia", "NAME_EN": "Umuahia", "NAME_JA": "ウムアヒア", "id": 219 }, "geometry": { "type": "Point", "coordinates": [ 7.4860025, 5.532003 ] } },
{ "type": "Feature", "properties": { "FEATURECLA": "Admin-1 capital", "NAME": "Uyo", "NAME_EN": "Uyo", "NAME_JA": "ウヨ", "id": 220 }, "geometry": { "type": "Point", "coordinates": [ 7.916152558612238, 5.036013508874578 ] } },
{ "type": "Feature", "properties": { "FEATURECLA": "Admin-1 capital", "NAME": "Owerri", "NAME_EN": "Owerri", "NAME_JA": "オウェリ", "id": 221 }, "geometry": { "type": "Point", "coordinates": [ 7.0260036, 5.4929971 ] } },
{ "type": "Feature", "properties": { "FEATURECLA": "Admin-1 capital", "NAME": "Sariwon", "NAME_EN": "Sariwon", "NAME_JA": "沙里院市", "id": 222 }, "geometry": { "type": "Point", "coordinates": [ 125.7620047, 38.5070041 ] } },
{ "type": "Feature", "properties": { "FEATURECLA": "Admin-1 capital", "NAME": "Sin-Ni", "NAME_EN": "Sin-Ni", "NAME_JA": "シンニ", "id": 223 }, "geometry": { "type": "Point", "coordinates": [ 125.4639966, 39.4880041 ] } },
{ "type": "Feature", "properties": { "FEATURECLA": "Admin-1 capital", "NAME": "Suchboatar", "NAME_EN": "Sükhbaatar", "NAME_JA": "スフバートル市", "id": 224 }, "geometry": { "type": "Point", "coordinates": [ 106.2000006, 50.2499971 ] } },
{ "type": "Feature", "properties": { "FEATURECLA": "Admin-1 capital", "NAME": "Dzuunmod", "NAME_EN": "Zuunmod", "NAME_JA": "ゾーンモド", "id": 225 }, "geometry": { "type": "Point", "coordinates": [ 106.9470006, 47.710998 ] } },
{ "type": "Feature", "properties": { "FEATURECLA": "Admin-1 capital", "NAME": "Omaruru", "NAME_EN": "Omaruru", "NAME_JA": "オマルル", "id": 226 }, "geometry": { "type": "Point", "coordinates": [ 15.9509975, -21.4360019 ] } },
{ "type": "Feature", "properties": { "FEATURECLA": "Admin-1 capital", "NAME": "Karibib", "NAME_EN": "Karibib", "NAME_JA": "カリビブ", "id": 227 }, "geometry": { "type": "Point", "coordinates": [ 15.8529965, -21.9390029 ] } },
{ "type": "Feature", "properties": { "FEATURECLA": "Admin-1 capital", "NAME": "Otavi", "NAME_EN": "Otavi", "NAME_JA": "オタヴィ", "id": 228 }, "geometry": { "type": "Point", "coordinates": [ 17.3420015, -19.639998 ] } },
{ "type": "Feature", "properties": { "FEATURECLA": "Admin-1 capital", "NAME": "Gobabis", "NAME_EN": "Gobabis", "NAME_JA": "ゴバビス", "id": 229 }, "geometry": { "type": "Point", "coordinates": [ 18.9630005, -22.455 ] } },
{ "type": "Feature", "properties": { "FEATURECLA": "Admin-1 capital", "NAME": "Wete", "NAME_EN": "Wete", "NAME_JA": "ウェテ", "id": 230 }, "geometry": { "type": "Point", "coordinates": [ 39.725799, -5.063464 ] } },
{ "type": "Feature", "properties": { "FEATURECLA": "Admin-1 capital", "NAME": "Kibaha", "NAME_EN": "Kibaha", "NAME_JA": "キバハ", "id": 231 }, "geometry": { "type": "Point", "coordinates": [ 38.9167026, -6.766704 ] } },
{ "type": "Feature", "properties": { "FEATURECLA": "Admin-1 capital", "NAME": "Mkokotoni", "NAME_EN": "Mkokotoni", "NAME_JA": "ムココトニ", "id": 232 }, "geometry": { "type": "Point", "coordinates": [ 39.2599986, -5.878998 ] } },
{ "type": "Feature", "properties": { "FEATURECLA": "Admin-1 capital", "NAME": "Fribourg", "NAME_EN": "Fribourg", "NAME_JA": "フリブール", "id": 233 }, "geometry": { "type": "Point", "coordinates": [ 7.1499965, 46.8000001 ] } },
{ "type": "Feature", "properties": { "FEATURECLA": "Admin-1 capital", "NAME": "Liestal", "NAME_EN": "Liestal", "NAME_JA": "リースタル", "id": 234 }, "geometry": { "type": "Point", "coordinates": [ 7.7370035, 47.4830011 ] } },
{ "type": "Feature", "properties": { "FEATURECLA": "Admin-1 capital", "NAME": "Solothurn", "NAME_EN": "Solothurn", "NAME_JA": "ゾロトゥルン", "id": 235 }, "geometry": { "type": "Point", "coordinates": [ 7.5369966, 47.2120021 ] } },
{ "type": "Feature", "properties": { "FEATURECLA": "Admin-1 capital", "NAME": "Sarnen", "NAME_EN": "Sarnen", "NAME_JA": "ザルネン", "id": 236 }, "geometry": { "type": "Point", "coordinates": [ 8.2430015, 46.899 ] } },
{ "type": "Feature", "properties": { "FEATURECLA": "Admin-1 capital", "NAME": "Mariestad", "NAME_EN": "Mariestad", "NAME_JA": "マリエスタード", "id": 237 }, "geometry": { "type": "Point", "coordinates": [ 13.8279966, 58.7050021 ] } },
{ "type": "Feature", "properties": { "FEATURECLA": "Admin-1 capital", "NAME": "Vannersborg", "NAME_EN": "Vänersborg", "NAME_JA": "ヴェンネシュボリ", "id": 238 }, "geometry": { "type": "Point", "coordinates": [ 12.3300006, 58.3630021 ] } },
{ "type": "Feature", "properties": { "FEATURECLA": "Admin-1 capital", "NAME": "Appenzell", "NAME_EN": "Appenzell", "NAME_JA": "アッペンツェル", "id": 239 }, "geometry": { "type": "Point", "coordinates": [ 9.4167005, 47.3333041 ] } },
{ "type": "Feature", "properties": { "FEATURECLA": "Admin-1 capital", "NAME": "Ros Comain", "NAME_EN": "Roscommon", "NAME_JA": "ロスコモン", "id": 240 }, "geometry": { "type": "Point", "coordinates": [ -8.1833333, 53.6333333 ] } },
{ "type": "Feature", "properties": { "FEATURECLA": "Admin-1 capital", "NAME": "Cacheu", "NAME_EN": "Cacheu", "NAME_JA": "カシェウ", "id": 241 }, "geometry": { "type": "Point", "coordinates": [ -16.1649985, 12.268998 ] } },
{ "type": "Feature", "properties": { "FEATURECLA": "Admin-1 capital", "NAME": "Farim", "NAME_EN": "Farim", "NAME_JA": "ファリン", "id": 242 }, "geometry": { "type": "Point", "coordinates": [ -15.2270004, 12.492999 ] } },
{ "type": "Feature", "properties": { "FEATURECLA": "Admin-1 capital", "NAME": "Fulacunda", "NAME_EN": "Fulacunda", "NAME_JA": "フラクンダ", "id": 243 }, "geometry": { "type": "Point", "coordinates": [ -15.1949965, 11.772999 ] } },
{ "type": "Feature", "properties": { "FEATURECLA": "Admin-1 capital", "NAME": "Gabú", "NAME_EN": "Gabú", "NAME_JA": "ガブ", "id": 244 }, "geometry": { "type": "Point", "coordinates": [ -14.2340035, 12.2799961 ] } },
{ "type": "Feature", "properties": { "FEATURECLA": "Admin-1 capital", "NAME": "Catió", "NAME_EN": "Catió", "NAME_JA": "カチオ", "id": 245 }, "geometry": { "type": "Point", "coordinates": [ -15.25424569133715, 11.273036476461991 ] } },
{ "type": "Feature", "properties": { "FEATURECLA": "Admin-1 capital", "NAME": "Barclayville", "NAME_EN": "Barclayville", "NAME_JA": "バークレービル", "id": 246 }, "geometry": { "type": "Point", "coordinates": [ -8.23159527078132, 4.674102754887166 ] } },
{ "type": "Feature", "properties": { "FEATURECLA": "Admin-1 capital", "NAME": "Voinjama", "NAME_EN": "Voinjama", "NAME_JA": "ボインジャマ", "id": 247 }, "geometry": { "type": "Point", "coordinates": [ -9.7499965, 8.4167011 ] } },
{ "type": "Feature", "properties": { "FEATURECLA": "Admin-1 capital", "NAME": "Bensonville", "NAME_EN": "Bensonville", "NAME_JA": "ベンソンビル", "id": 248 }, "geometry": { "type": "Point", "coordinates": [ -10.6000015, 6.433299 ] } },
{ "type": "Feature", "properties": { "FEATURECLA": "Admin-1 capital", "NAME": "Kakata", "NAME_EN": "Kakata", "NAME_JA": "カカタ", "id": 249 }, "geometry": { "type": "Point", "coordinates": [ -10.3490005, 6.525999 ] } },
{ "type": "Feature", "properties": { "FEATURECLA": "Admin-1 capital", "NAME": "Sanniquellie", "NAME_EN": "Sanniquellie", "NAME_JA": "サニケリエ", "id": 250 }, "geometry": { "type": "Point", "coordinates": [ -8.6849995, 7.3710001 ] } },
{ "type": "Feature", "properties": { "FEATURECLA": "Admin-1 capital", "NAME": "Rivercess", "NAME_EN": "River Cess", "NAME_JA": "リバーセス", "id": 251 }, "geometry": { "type": "Point", "coordinates": [ -9.5779974, 5.464998 ] } },
{ "type": "Feature", "properties": { "FEATURECLA": "Admin-1 region capital", "NAME": "Potenza", "NAME_EN": "Potenza", "NAME_JA": "ポテンツァ", "id": 252 }, "geometry": { "type": "Point", "coordinates": [ 15.7989965, 40.6420021 ] } },
{ "type": "Feature", "properties": { "FEATURECLA": "Admin-1 region capital", "NAME": "Campobasso", "NAME_EN": "Campobasso", "NAME_JA": "カンポバッソ", "id": 253 }, "geometry": { "type": "Point", "coordinates": [ 14.6559966, 41.5629991 ] } },
{ "type": "Feature", "properties": { "FEATURECLA": "Admin-1 capital", "NAME": "Al Mafraq", "NAME_EN": "Mafraq", "NAME_JA": "マフラク", "id": 254 }, "geometry": { "type": "Point", "coordinates": [ 36.2332985, 32.2832971 ] } },
{ "type": "Feature", "properties": { "FEATURECLA": "Admin-1 capital", "NAME": "At Tafilah", "NAME_EN": "Tafilah", "NAME_JA": "タフィラ", "id": 255 }, "geometry": { "type": "Point", "coordinates": [ 35.6000046, 30.833334 ] } },
{ "type": "Feature", "properties": { "FEATURECLA": "Admin-1 capital", "NAME": "Ma'an", "NAME_EN": "Ma'an", "NAME_JA": "マアーン", "id": 256 }, "geometry": { "type": "Point", "coordinates": [ 35.7360036, 30.1920031 ] } },
{ "type": "Feature", "properties": { "FEATURECLA": "Admin-1 region capital", "NAME": "Aosta", "NAME_EN": "Aosta", "NAME_JA": "アオスタ", "id": 257 }, "geometry": { "type": "Point", "coordinates": [ 7.3150026, 45.7370011 ] } },
{ "type": "Feature", "properties": { "FEATURECLA": "Admin-1 capital", "NAME": "Diekirch", "NAME_EN": "Diekirch", "NAME_JA": "ディーキルヒ", "id": 258 }, "geometry": { "type": "Point", "coordinates": [ 6.1667016, 49.8833011 ] } },
{ "type": "Feature", "properties": { "FEATURECLA": "Admin-1 capital", "NAME": "Grevenmacher", "NAME_EN": "Grevenmacher", "NAME_JA": "グレーヴェンマハ", "id": 259 }, "geometry": { "type": "Point", "coordinates": [ 6.425599376387133, 49.67975296258291 ] } },
{ "type": "Feature", "properties": { "FEATURECLA": "Admin-1 capital", "NAME": "Kangar", "NAME_EN": "Kangar", "NAME_JA": "カンガー", "id": 260 }, "geometry": { "type": "Point", "coordinates": [ 100.1899987, 6.433002 ] } },
{ "type": "Feature", "properties": { "FEATURECLA": "Admin-1 capital", "NAME": "Kuala Lipis", "NAME_EN": "Kuala Lipis", "NAME_JA": "クアラリピス", "id": 261 }, "geometry": { "type": "Point", "coordinates": [ 102.0420006, 4.1840011 ] } },
{ "type": "Feature", "properties": { "FEATURECLA": "Admin-1 capital", "NAME": "Shah Alam", "NAME_EN": "Shah Alam", "NAME_JA": "シャー・アラム", "id": 262 }, "geometry": { "type": "Point", "coordinates": [ 101.5499977, 3.066696 ] } },
{ "type": "Feature", "properties": { "FEATURECLA": "Admin-1 capital", "NAME": "Nyeri", "NAME_EN": "Nyeri", "NAME_JA": "ニエリ", "id": 263 }, "geometry": { "type": "Point", "coordinates": [ 36.9510036, -0.416997 ] } },
{ "type": "Feature", "properties": { "FEATURECLA": "Admin-1 capital", "NAME": "Teyateyaneng", "NAME_EN": "Teyateyaneng", "NAME_JA": "テヤテヤネング", "id": 264 }, "geometry": { "type": "Point", "coordinates": [ 27.7530035, -29.1529979 ] } },
{ "type": "Feature", "properties": { "FEATURECLA": "Admin-1 capital", "NAME": "Mohales Hoek", "NAME_EN": "Mohale's Hoek", "NAME_JA": "モハレス・フーク", "id": 265 }, "geometry": { "type": "Point", "coordinates": [ 27.4799975, -30.1589999 ] } },
{ "type": "Feature", "properties": { "FEATURECLA": "Admin-1 capital", "NAME": "Moyeni", "NAME_EN": "Quthing", "NAME_JA": "クティング", "id": 266 }, "geometry": { "type": "Point", "coordinates": [ 27.7160045, -30.4109999 ] } },
{ "type": "Feature", "properties": { "FEATURECLA": "Admin-1 capital", "NAME": "Hlotse", "NAME_EN": "Hlotse", "NAME_JA": "フロツェ", "id": 267 }, "geometry": { "type": "Point", "coordinates": [ 28.0559976, -28.878003 ] } },
{ "type": "Feature", "properties": { "FEATURECLA": "Admin-1 capital", "NAME": "Butha-Buthe", "NAME_EN": "Butha-Buthe", "NAME_JA": "ブータ・ブーテ", "id": 268 }, "geometry": { "type": "Point", "coordinates": [ 28.2500016, -28.7499959 ] } },
{ "type": "Feature", "properties": { "FEATURECLA": "Admin-1 capital", "NAME": "Mokhotlong", "NAME_EN": "Mokhotlong", "NAME_JA": "モコトロング", "id": 269 }, "geometry": { "type": "Point", "coordinates": [ 29.0780015, -29.291004 ] } },
{ "type": "Feature", "properties": { "FEATURECLA": "Admin-1 capital", "NAME": "Ahuachapán", "NAME_EN": "Ahuachapán", "NAME_JA": "アワチャパン", "id": 270 }, "geometry": { "type": "Point", "coordinates": [ -89.8450015, 13.919004 ] } },
{ "type": "Feature", "properties": { "FEATURECLA": "Admin-1 capital", "NAME": "Cojutepeque", "NAME_EN": "Cojutepeque", "NAME_JA": "コフテペケ", "id": 271 }, "geometry": { "type": "Point", "coordinates": [ -88.9333016, 13.716702 ] } },
{ "type": "Feature", "properties": { "FEATURECLA": "Admin-1 capital", "NAME": "Nueva San Salvador", "NAME_EN": "Santa Tecla", "NAME_JA": "サンタテクラ", "id": 272 }, "geometry": { "type": "Point", "coordinates": [ -89.2899985, 13.673997 ] } },
{ "type": "Feature", "properties": { "FEATURECLA": "Admin-1 capital", "NAME": "Zacatecoluca", "NAME_EN": "Zacatecoluca", "NAME_JA": "サカテコルーカ", "id": 273 }, "geometry": { "type": "Point", "coordinates": [ -88.8679976, 13.508001 ] } },
{ "type": "Feature", "properties": { "FEATURECLA": "Admin-1 capital", "NAME": "La Unión", "NAME_EN": "La Unión", "NAME_JA": "ラ・ウニオン", "id": 274 }, "geometry": { "type": "Point", "coordinates": [ -87.8390005, 13.331997 ] } },
{ "type": "Feature", "properties": { "FEATURECLA": "Admin-1 capital", "NAME": "San Francisco Gotera", "NAME_EN": "San Francisco Gotera", "NAME_JA": "サン・フランシスコ・ゴテラ", "id": 275 }, "geometry": { "type": "Point", "coordinates": [ -88.1000005, 13.6999981 ] } },
{ "type": "Feature", "properties": { "FEATURECLA": "Admin-1 capital", "NAME": "San Vicente", "NAME_EN": "San Vicente", "NAME_JA": "サン・ビセンテ", "id": 276 }, "geometry": { "type": "Point", "coordinates": [ -88.7849996, 13.641003 ] } },
{ "type": "Feature", "properties": { "FEATURECLA": "Admin-1 capital", "NAME": "Usulután", "NAME_EN": "Usulután", "NAME_JA": "ウスルタン", "id": 277 }, "geometry": { "type": "Point", "coordinates": [ -88.4320016, 13.3460011 ] } },
{ "type": "Feature", "properties": { "FEATURECLA": "Admin-1 capital", "NAME": "Chalatenango", "NAME_EN": "Chalatenango", "NAME_JA": "チャラテナンゴ", "id": 278 }, "geometry": { "type": "Point", "coordinates": [ -88.906737115608095, 14.009526824913458 ] } },
{ "type": "Feature", "properties": { "FEATURECLA": "Admin-1 capital", "NAME": "Lucea", "NAME_EN": "Lucea", "NAME_JA": "ルセア", "id": 279 }, "geometry": { "type": "Point", "coordinates": [ -78.1790036, 18.4429981 ] } },
{ "type": "Feature", "properties": { "FEATURECLA": "Admin-1 capital", "NAME": "Mandeville", "NAME_EN": "Mandeville", "NAME_JA": "マンデヴィル", "id": 280 }, "geometry": { "type": "Point", "coordinates": [ -77.4999985, 18.0330031 ] } },
{ "type": "Feature", "properties": { "FEATURECLA": "Admin-1 capital", "NAME": "Black River", "NAME_EN": "Black River", "NAME_JA": "ブラック・リバー", "id": 281 }, "geometry": { "type": "Point", "coordinates": [ -77.8519975, 18.0309961 ] } },
{ "type": "Feature", "properties": { "FEATURECLA": "Admin-1 capital", "NAME": "Falmouth", "NAME_EN": "Falmouth", "NAME_JA": "ファルマウス", "id": 282 }, "geometry": { "type": "Point", "coordinates": [ -77.6560496, 18.479583 ] } },
{ "type": "Feature", "properties": { "FEATURECLA": "Admin-1 capital", "NAME": "Savanna-la-Mar", "NAME_EN": "Savanna-la-Mar", "NAME_JA": "サバナラマル", "id": 283 }, "geometry": { "type": "Point", "coordinates": [ -77.9480005, 18.1639981 ] } },
{ "type": "Feature", "properties": { "FEATURECLA": "Admin-1 capital", "NAME": "Port Antonio", "NAME_EN": "Port Antonio", "NAME_JA": "ポート・アントニオ", "id": 284 }, "geometry": { "type": "Point", "coordinates": [ -76.3800026, 18.1590031 ] } },
{ "type": "Feature", "properties": { "FEATURECLA": "Admin-1 capital", "NAME": "Saint Ann's Bay", "NAME_EN": "Saint Ann's Bay", "NAME_JA": "聖アン湾", "id": 285 }, "geometry": { "type": "Point", "coordinates": [ -77.1995245, 18.4326391 ] } },
{ "type": "Feature", "properties": { "FEATURECLA": "Admin-1 capital", "NAME": "Port Maria", "NAME_EN": "Port Maria", "NAME_JA": "マリア港", "id": 286 }, "geometry": { "type": "Point", "coordinates": [ -76.8999955, 18.3770011 ] } },
{ "type": "Feature", "properties": { "FEATURECLA": "Admin-1 capital", "NAME": "Half Way Tree", "NAME_EN": "Half Way Tree", "NAME_JA": "ハーフ・ウェイ・ツリー", "id": 287 }, "geometry": { "type": "Point", "coordinates": [ -76.7999965, 18.0333001 ] } },
{ "type": "Feature", "properties": { "FEATURECLA": "Admin-1 capital", "NAME": "Port Morant", "NAME_EN": "Port Morant", "NAME_JA": "ポートモラン", "id": 288 }, "geometry": { "type": "Point", "coordinates": [ -76.3289996, 17.891001 ] } },
{ "type": "Feature", "properties": { "FEATURECLA": "Admin-1 capital", "NAME": "Sabaneta", "NAME_EN": "Sabaneta", "NAME_JA": "サバネタ", "id": 289 }, "geometry": { "type": "Point", "coordinates": [ -71.3449885, 19.5049981 ] } },
{ "type": "Feature", "properties": { "FEATURECLA": "Admin-1 capital", "NAME": "Mao", "NAME_EN": "Mao", "NAME_JA": "マオ", "id": 290 }, "geometry": { "type": "Point", "coordinates": [ -71.0749975, 19.5519961 ] } },
{ "type": "Feature", "properties": { "FEATURECLA": "Admin-1 capital", "NAME": "Cotuí", "NAME_EN": "Cotuí", "NAME_JA": "コトゥイ", "id": 291 }, "geometry": { "type": "Point", "coordinates": [ -70.1520026, 19.0590031 ] } },
{ "type": "Feature", "properties": { "FEATURECLA": "Admin-1 capital", "NAME": "Evinayong", "NAME_EN": "Evinayong", "NAME_JA": "エヴィナヨング", "id": 292 }, "geometry": { "type": "Point", "coordinates": [ 10.5667026, 1.4499991 ] } },
{ "type": "Feature", "properties": { "FEATURECLA": "Admin-1 capital", "NAME": "Luba", "NAME_EN": "Luba", "NAME_JA": "ルバ", "id": 293 }, "geometry": { "type": "Point", "coordinates": [ 8.5500005, 3.449997 ] } },
{ "type": "Feature", "properties": { "FEATURECLA": "Admin-1 capital", "NAME": "Šibenik", "NAME_EN": "Šibenik", "NAME_JA": "シベニク", "id": 294 }, "geometry": { "type": "Point", "coordinates": [ 15.9058333, 43.7272222 ] } },
{ "type": "Feature", "properties": { "FEATURECLA": "Admin-1 capital", "NAME": "Shibin el Kom", "NAME_EN": "Shibin Al Kawm", "NAME_JA": "シビーン・エル＝コーム", "id": 295 }, "geometry": { "type": "Point", "coordinates": [ 31.006953163624576, 30.554482316797522 ] } },
{ "type": "Feature", "properties": { "FEATURECLA": "Admin-1 capital", "NAME": "Benha", "NAME_EN": "Banha", "NAME_JA": "バンハー", "id": 296 }, "geometry": { "type": "Point", "coordinates": [ 31.1833356, 30.4666651 ] } },
{ "type": "Feature", "properties": { "FEATURECLA": "Admin-1 capital", "NAME": "Zagazig", "NAME_EN": "Zagazig", "NAME_JA": "ザガジグ", "id": 297 }, "geometry": { "type": "Point", "coordinates": [ 31.5166596, 30.5833321 ] } },
{ "type": "Feature", "properties": { "FEATURECLA": "Admin-1 capital", "NAME": "Kafr el Sheikh", "NAME_EN": "Kafr el-Sheikh", "NAME_JA": "カフル・アッシャイフ", "id": 298 }, "geometry": { "type": "Point", "coordinates": [ 30.9359976, 31.109004 ] } },
{ "type": "Feature", "properties": { "FEATURECLA": "Admin-1 capital", "NAME": "Dikhil", "NAME_EN": "Dikhil", "NAME_JA": "ディキル", "id": 299 }, "geometry": { "type": "Point", "coordinates": [ 42.3720006, 11.104002 ] } },
{ "type": "Feature", "properties": { "FEATURECLA": "Admin-1 capital", "NAME": "Tadjoura", "NAME_EN": "Tadjoura", "NAME_JA": "タジュラ", "id": 300 }, "geometry": { "type": "Point", "coordinates": [ 42.9000035, 11.783304 ] } },
{ "type": "Feature", "properties": { "FEATURECLA": "Admin-1 capital", "NAME": "Haapsalu", "NAME_EN": "Haapsalu", "NAME_JA": "ハープサル", "id": 301 }, "geometry": { "type": "Point", "coordinates": [ 23.5413889, 58.9430556 ] } },
{ "type": "Feature", "properties": { "FEATURECLA": "Admin-1 capital", "NAME": "Hawalli", "NAME_EN": "Hawalli", "NAME_JA": "ハワッリー地区", "id": 302 }, "geometry": { "type": "Point", "coordinates": [ 47.9999976, 29.33334 ] } },
{ "type": "Feature", "properties": { "FEATURECLA": "Admin-1 capital", "NAME": "Buluko", "NAME_EN": "Buluko", "NAME_JA": "ブルコ", "id": 303 }, "geometry": { "type": "Point", "coordinates": [ 28.5280025, -0.7569989 ] } },
{ "type": "Feature", "properties": { "FEATURECLA": "Admin-1 capital", "NAME": "Mzimba", "NAME_EN": "Mzimba", "NAME_JA": "ムジンバ", "id": 304 }, "geometry": { "type": "Point", "coordinates": [ 33.6, -11.9 ] } },
{ "type": "Feature", "properties": { "FEATURECLA": "Admin-1 capital", "NAME": "Machinga", "NAME_EN": "Machinga", "NAME_JA": "マチンガ", "id": 305 }, "geometry": { "type": "Point", "coordinates": [ 35.301665184587073, -15.176185970333954 ] } },
{ "type": "Feature", "properties": { "FEATURECLA": "Admin-1 capital", "NAME": "Dedza", "NAME_EN": "Dedza", "NAME_JA": "デッザ", "id": 306 }, "geometry": { "type": "Point", "coordinates": [ 34.3333333, -14.3666667 ] } },
{ "type": "Feature", "properties": { "FEATURECLA": "Admin-1 capital", "NAME": "Mchinji", "NAME_EN": "Mchinji", "NAME_JA": "ムチンジ", "id": 307 }, "geometry": { "type": "Point", "coordinates": [ 32.9, -13.8 ] } },
{ "type": "Feature", "properties": { "FEATURECLA": "Admin-1 capital", "NAME": "Ntcheu", "NAME_EN": "Ntcheu", "NAME_JA": "ンチェウ", "id": 308 }, "geometry": { "type": "Point", "coordinates": [ 34.6333333, -14.8166667 ] } },
{ "type": "Feature", "properties": { "FEATURECLA": "Admin-1 capital", "NAME": "Chiradzulu", "NAME_EN": "Chiradzulu", "NAME_JA": "チラズル", "id": 309 }, "geometry": { "type": "Point", "coordinates": [ 35.1833333, -15.7 ] } },
{ "type": "Feature", "properties": { "FEATURECLA": "Admin-1 capital", "NAME": "Nsanje", "NAME_EN": "Nsanje", "NAME_JA": "ンサンジェ", "id": 310 }, "geometry": { "type": "Point", "coordinates": [ 35.2666667, -16.9166667 ] } },
{ "type": "Feature", "properties": { "FEATURECLA": "Admin-1 capital", "NAME": "Mwanza", "NAME_EN": "Mwanza", "NAME_JA": "ムワンザ", "id": 311 }, "geometry": { "type": "Point", "coordinates": [ 34.5166667, -15.6166667 ] } },
{ "type": "Feature", "properties": { "FEATURECLA": "Admin-1 capital", "NAME": "Mulanje", "NAME_EN": "Mulanje", "NAME_JA": "ムランジェ", "id": 312 }, "geometry": { "type": "Point", "coordinates": [ 35.5, -16.0333333 ] } },
{ "type": "Feature", "properties": { "FEATURECLA": "Admin-1 capital", "NAME": "Salamá", "NAME_EN": "Salamá", "NAME_JA": "サラマ", "id": 313 }, "geometry": { "type": "Point", "coordinates": [ -90.3140006, 15.102999 ] } },
{ "type": "Feature", "properties": { "FEATURECLA": "Admin-1 capital", "NAME": "Retalhuleu", "NAME_EN": "Retalhuleu", "NAME_JA": "レタルレウ", "id": 314 }, "geometry": { "type": "Point", "coordinates": [ -91.6770145, 14.537097 ] } },
{ "type": "Feature", "properties": { "FEATURECLA": "Admin-1 capital", "NAME": "San Marcos", "NAME_EN": "San Marcos", "NAME_JA": "サン・マルコス", "id": 315 }, "geometry": { "type": "Point", "coordinates": [ -91.7999995, 14.9660011 ] } },
{ "type": "Feature", "properties": { "FEATURECLA": "Admin-1 capital", "NAME": "Chimaltenango", "NAME_EN": "Chimaltenango", "NAME_JA": "チマルテナンゴ", "id": 316 }, "geometry": { "type": "Point", "coordinates": [ -90.8199985, 14.6619991 ] } },
{ "type": "Feature", "properties": { "FEATURECLA": "Admin-1 capital", "NAME": "Antigua Guatemala", "NAME_EN": "Antigua Guatemala", "NAME_JA": "アンティグア・グアテマラ", "id": 317 }, "geometry": { "type": "Point", "coordinates": [ -90.7333016, 14.5666981 ] } },
{ "type": "Feature", "properties": { "FEATURECLA": "Admin-1 capital", "NAME": "Sololá", "NAME_EN": "Sololá", "NAME_JA": "ソロラ", "id": 318 }, "geometry": { "type": "Point", "coordinates": [ -91.1829955, 14.772996 ] } },
{ "type": "Feature", "properties": { "FEATURECLA": "Admin-1 capital", "NAME": "Totonicapán", "NAME_EN": "Totonicapán", "NAME_JA": "トトニカパン", "id": 319 }, "geometry": { "type": "Point", "coordinates": [ -91.3580006, 14.913999 ] } },
{ "type": "Feature", "properties": { "FEATURECLA": "Admin-1 capital", "NAME": "El Progreso", "NAME_EN": "El Progreso", "NAME_JA": "エル・プログレソ", "id": 320 }, "geometry": { "type": "Point", "coordinates": [ -90.016208204803164, 14.92229409124964 ] } },
{ "type": "Feature", "properties": { "FEATURECLA": "Admin-1 capital", "NAME": "Cuilapa", "NAME_EN": "Cuilapa", "NAME_JA": "クイラパ", "id": 321 }, "geometry": { "type": "Point", "coordinates": [ -90.2979985, 14.2790041 ] } },
{ "type": "Feature", "properties": { "FEATURECLA": "Admin-1 capital", "NAME": "Chiquimula", "NAME_EN": "Chiquimula", "NAME_JA": "チキムーラ", "id": 322 }, "geometry": { "type": "Point", "coordinates": [ -89.5439965, 14.7969991 ] } },
{ "type": "Feature", "properties": { "FEATURECLA": "Admin-1 capital", "NAME": "Jalapa", "NAME_EN": "Jalapa", "NAME_JA": "ハラパ", "id": 323 }, "geometry": { "type": "Point", "coordinates": [ -89.9890016, 14.6330011 ] } },
{ "type": "Feature", "properties": { "FEATURECLA": "Admin-1 capital", "NAME": "Zacapa", "NAME_EN": "Zacapa", "NAME_JA": "サカパ", "id": 324 }, "geometry": { "type": "Point", "coordinates": [ -89.5290026, 14.972004 ] } },
{ "type": "Feature", "properties": { "FEATURECLA": "Admin-1 capital", "NAME": "Puerto Plata", "NAME_EN": "Puerto Plata", "NAME_JA": "プエルト・プラタ", "id": 325 }, "geometry": { "type": "Point", "coordinates": [ -70.6902475, 19.7902171 ] } },
{ "type": "Feature", "properties": { "FEATURECLA": "Admin-1 capital", "NAME": "Dajabón", "NAME_EN": "Dajabón", "NAME_JA": "ダハボン", "id": 326 }, "geometry": { "type": "Point", "coordinates": [ -71.7049976, 19.548 ] } },
{ "type": "Feature", "properties": { "FEATURECLA": "Admin-1 capital", "NAME": "Moca", "NAME_EN": "Moca", "NAME_JA": "モカ", "id": 327 }, "geometry": { "type": "Point", "coordinates": [ -70.5230006, 19.3969981 ] } },
{ "type": "Feature", "properties": { "FEATURECLA": "Admin-1 capital", "NAME": "Salcedo", "NAME_EN": "Salcedo", "NAME_JA": "サルセド", "id": 328 }, "geometry": { "type": "Point", "coordinates": [ -70.4167015, 19.383003 ] } },
{ "type": "Feature", "properties": { "FEATURECLA": "Admin-1 capital", "NAME": "Jimaní", "NAME_EN": "Jimaní", "NAME_JA": "ヒマニ", "id": 329 }, "geometry": { "type": "Point", "coordinates": [ -71.8509955, 18.4930021 ] } },
{ "type": "Feature", "properties": { "FEATURECLA": "Admin-1 capital", "NAME": "Comendador", "NAME_EN": "Comendador", "NAME_JA": "コメンダドル", "id": 330 }, "geometry": { "type": "Point", "coordinates": [ -71.7069955, 18.875997 ] } },
{ "type": "Feature", "properties": { "FEATURECLA": "Admin-1 capital", "NAME": "Pedernales", "NAME_EN": "Pedernales", "NAME_JA": "ペデルナレス", "id": 331 }, "geometry": { "type": "Point", "coordinates": [ -71.7409976, 18.037998 ] } },
{ "type": "Feature", "properties": { "FEATURECLA": "Admin-1 capital", "NAME": "Azua", "NAME_EN": "Azua", "NAME_JA": "アスア", "id": 332 }, "geometry": { "type": "Point", "coordinates": [ -70.7290016, 18.4539961 ] } },
{ "type": "Feature", "properties": { "FEATURECLA": "Admin-1 capital", "NAME": "Bonao", "NAME_EN": "Bonao", "NAME_JA": "ボナオ", "id": 333 }, "geometry": { "type": "Point", "coordinates": [ -70.4089976, 18.9420031 ] } },
{ "type": "Feature", "properties": { "FEATURECLA": "Admin-1 capital", "NAME": "Baní", "NAME_EN": "Baní", "NAME_JA": "バニ", "id": 334 }, "geometry": { "type": "Point", "coordinates": [ -70.3310035, 18.279999 ] } },
{ "type": "Feature", "properties": { "FEATURECLA": "Admin-1 capital", "NAME": "Hato Mayor", "NAME_EN": "Hato Mayor del Rey", "NAME_JA": "アト・マジョール・デル・レイ", "id": 335 }, "geometry": { "type": "Point", "coordinates": [ -69.2569975, 18.7640011 ] } },
{ "type": "Feature", "properties": { "FEATURECLA": "Admin-1 capital", "NAME": "Monte Plata", "NAME_EN": "Monte Plata", "NAME_JA": "モンテ・プラタ", "id": 336 }, "geometry": { "type": "Point", "coordinates": [ -69.7840015, 18.8070031 ] } },
{ "type": "Feature", "properties": { "FEATURECLA": "Admin-1 capital", "NAME": "Nagua", "NAME_EN": "Nagua", "NAME_JA": "ナグア", "id": 337 }, "geometry": { "type": "Point", "coordinates": [ -69.8470015, 19.3760011 ] } },
{ "type": "Feature", "properties": { "FEATURECLA": "Admin-1 capital", "NAME": "Samaná", "NAME_EN": "Samaná", "NAME_JA": "サマナ", "id": 338 }, "geometry": { "type": "Point", "coordinates": [ -69.3320036, 19.2120031 ] } },
{ "type": "Feature", "properties": { "FEATURECLA": "Admin-1 capital", "NAME": "San Cristóbal", "NAME_EN": "San Cristóbal", "NAME_JA": "サン・クリストバル", "id": 339 }, "geometry": { "type": "Point", "coordinates": [ -70.1090005, 18.4159981 ] } },
{ "type": "Feature", "properties": { "FEATURECLA": "Admin-1 capital", "NAME": "El Seibo", "NAME_EN": "Santa Cruz del Seibo", "NAME_JA": "エル・セイボ", "id": 340 }, "geometry": { "type": "Point", "coordinates": [ -69.0350035, 18.7640011 ] } },
{ "type": "Feature", "properties": { "FEATURECLA": "Admin-1 capital", "NAME": "Higuey", "NAME_EN": "Salvaleón de Higüey", "NAME_JA": "イグエイ", "id": 341 }, "geometry": { "type": "Point", "coordinates": [ -68.7079975, 18.615996 ] } },
{ "type": "Feature", "properties": { "FEATURECLA": "Admin-1 capital", "NAME": "Georgetown", "NAME_EN": "Janjanbureh", "NAME_JA": "ジャンジャンブレア", "id": 342 }, "geometry": { "type": "Point", "coordinates": [ -14.7670015, 13.5510031 ] } },
{ "type": "Feature", "properties": { "FEATURECLA": "Admin-1 capital", "NAME": "Basse Santa Su", "NAME_EN": "Basse Santa Su", "NAME_JA": "バセ・サンタ・ス", "id": 343 }, "geometry": { "type": "Point", "coordinates": [ -14.2229965, 13.3100011 ] } },
{ "type": "Feature", "properties": { "FEATURECLA": "Admin-1 capital", "NAME": "Kerewan", "NAME_EN": "Kerewan", "NAME_JA": "ケレワン", "id": 344 }, "geometry": { "type": "Point", "coordinates": [ -16.0949965, 13.4939971 ] } },
{ "type": "Feature", "properties": { "FEATURECLA": "Admin-1 capital", "NAME": "Mansa Konko", "NAME_EN": "Mansa Konko", "NAME_JA": "マンサ・コンコ", "id": 345 }, "geometry": { "type": "Point", "coordinates": [ -15.543323511272511, 13.454894163505193 ] } },
{ "type": "Feature", "properties": { "FEATURECLA": "Admin-1 capital", "NAME": "Sunyani", "NAME_EN": "Sunyani", "NAME_JA": "スンヤニ", "id": 346 }, "geometry": { "type": "Point", "coordinates": [ -2.3360034, 7.335999 ] } },
{ "type": "Feature", "properties": { "FEATURECLA": "Admin-1 capital", "NAME": "Ebebiyín", "NAME_EN": "Ebebiyín", "NAME_JA": "エベビイン", "id": 347 }, "geometry": { "type": "Point", "coordinates": [ 11.3300016, 2.152998 ] } },
{ "type": "Feature", "properties": { "FEATURECLA": "Admin-1 capital", "NAME": "Viljandi", "NAME_EN": "Viljandi", "NAME_JA": "ヴィリャンディ", "id": 348 }, "geometry": { "type": "Point", "coordinates": [ 25.59, 58.3638889 ] } },
{ "type": "Feature", "properties": { "FEATURECLA": "Admin-1 capital", "NAME": "Tchibanga", "NAME_EN": "Tchibanga", "NAME_JA": "チバンガ", "id": 349 }, "geometry": { "type": "Point", "coordinates": [ 10.997288593437615, -2.921483448704078 ] } },
{ "type": "Feature", "properties": { "FEATURECLA": "Admin-1 capital", "NAME": "Madingou", "NAME_EN": "Madingou", "NAME_JA": "マディング", "id": 350 }, "geometry": { "type": "Point", "coordinates": [ 13.5540005, -4.1640029 ] } },
{ "type": "Feature", "properties": { "FEATURECLA": "Admin-1 capital", "NAME": "Lamia", "NAME_EN": "Lamia", "NAME_JA": "ラミア", "id": 351 }, "geometry": { "type": "Point", "coordinates": [ 22.4340036, 38.8989992 ] } },
{ "type": "Feature", "properties": { "FEATURECLA": "Admin-1 capital", "NAME": "Polygyros", "NAME_EN": "Polygyros", "NAME_JA": "ポリギロス", "id": 352 }, "geometry": { "type": "Point", "coordinates": [ 23.4530015, 40.3810021 ] } },
{ "type": "Feature", "properties": { "FEATURECLA": "Admin-1 capital", "NAME": "Komatini", "NAME_EN": "Komotini", "NAME_JA": "コモティニ", "id": 353 }, "geometry": { "type": "Point", "coordinates": [ 25.4167026, 41.1333031 ] } },
{ "type": "Feature", "properties": { "FEATURECLA": "Admin-1 capital", "NAME": "B'abda", "NAME_EN": "Baabda", "NAME_JA": "バアブダー", "id": 354 }, "geometry": { "type": "Point", "coordinates": [ 35.5332965, 33.8333041 ] } },
{ "type": "Feature", "properties": { "FEATURECLA": "Admin-1 capital", "NAME": "Ramla", "NAME_EN": "Ramla", "NAME_JA": "ラムラ", "id": 355 }, "geometry": { "type": "Point", "coordinates": [ 34.8667025, 31.9167001 ] } },
{ "type": "Feature", "properties": { "FEATURECLA": "Admin-1 capital", "NAME": "Nabatiye et Tahta", "NAME_EN": "Nabatieh", "NAME_JA": "ナバティーエ", "id": 356 }, "geometry": { "type": "Point", "coordinates": [ 35.4500016, 33.383304 ] } },
{ "type": "Feature", "properties": { "FEATURECLA": "Admin-0 region capital", "NAME": "Mariehamn", "NAME_EN": "Mariehamn", "NAME_JA": "マリエハムン", "id": 357 }, "geometry": { "type": "Point", "coordinates": [ 19.9490045, 60.0969962 ] } },
{ "type": "Feature", "properties": { "FEATURECLA": "Admin-1 capital", "NAME": "Hämeenlinna", "NAME_EN": "Hämeenlinna", "NAME_JA": "ハメーンリンナ", "id": 358 }, "geometry": { "type": "Point", "coordinates": [ 24.4719995, 60.9969961 ] } },
{ "type": "Feature", "properties": { "FEATURECLA": "Admin-1 capital", "NAME": "Kouvola", "NAME_EN": "Kouvola", "NAME_JA": "コウヴォラ", "id": 359 }, "geometry": { "type": "Point", "coordinates": [ 26.7090035, 60.8760001 ] } },
{ "type": "Feature", "properties": { "FEATURECLA": "Admin-1 capital", "NAME": "Mikkeli", "NAME_EN": "Mikkeli", "NAME_JA": "ミッケリ", "id": 360 }, "geometry": { "type": "Point", "coordinates": [ 27.2850035, 61.6899962 ] } },
{ "type": "Feature", "properties": { "FEATURECLA": "Admin-1 capital", "NAME": "Ban Houayxay", "NAME_EN": "Ban Houayxay", "NAME_JA": "フアイサーイ郡", "id": 361 }, "geometry": { "type": "Point", "coordinates": [ 100.4127778, 20.2775 ] } },
{ "type": "Feature", "properties": { "FEATURECLA": "Admin-1 capital", "NAME": "Louang Namtha", "NAME_EN": "Luang Namtha", "NAME_JA": "ルアンナムター郡", "id": 362 }, "geometry": { "type": "Point", "coordinates": [ 101.4166986, 20.950002 ] } },
{ "type": "Feature", "properties": { "FEATURECLA": "Admin-1 capital", "NAME": "Champasak", "NAME_EN": "Champasak", "NAME_JA": "チャンパーサック", "id": 363 }, "geometry": { "type": "Point", "coordinates": [ 105.8667036, 14.8833001 ] } },
{ "type": "Feature", "properties": { "FEATURECLA": "Admin-1 capital", "NAME": "Saravan", "NAME_EN": "Salavan", "NAME_JA": "サーラワン", "id": 364 }, "geometry": { "type": "Point", "coordinates": [ 106.4269987, 15.715998 ] } },
{ "type": "Feature", "properties": { "FEATURECLA": "Admin-1 capital", "NAME": "Xam Nua", "NAME_EN": "Xam Neua", "NAME_JA": "サムヌア", "id": 365 }, "geometry": { "type": "Point", "coordinates": [ 104.0333047, 20.416698 ] } },
{ "type": "Feature", "properties": { "FEATURECLA": "Admin-1 capital", "NAME": "Phongsali", "NAME_EN": "Phongsali", "NAME_JA": "ポンサーリー郡", "id": 366 }, "geometry": { "type": "Point", "coordinates": [ 102.0999967, 21.683304 ] } },
{ "type": "Feature", "properties": { "FEATURECLA": "Admin-1 capital", "NAME": "Attapu", "NAME_EN": "Attapeu", "NAME_JA": "アッタプー", "id": 367 }, "geometry": { "type": "Point", "coordinates": [ 106.8390005, 14.8079971 ] } },
{ "type": "Feature", "properties": { "FEATURECLA": "Admin-1 capital", "NAME": "Kinkala", "NAME_EN": "Kinkala", "NAME_JA": "キンカラ", "id": 368 }, "geometry": { "type": "Point", "coordinates": [ 14.7619986, -4.3559999 ] } },
{ "type": "Feature", "properties": { "FEATURECLA": "Admin-1 capital", "NAME": "Muineachan", "NAME_EN": "Monaghan", "NAME_JA": "モナハン", "id": 369 }, "geometry": { "type": "Point", "coordinates": [ -6.9666667, 54.25 ] } },
{ "type": "Feature", "properties": { "FEATURECLA": "Admin-1 capital", "NAME": "Vejle", "NAME_EN": "Vejle", "NAME_JA": "ヴァイレ", "id": 370 }, "geometry": { "type": "Point", "coordinates": [ 9.5349965, 55.709001 ] } },
{ "type": "Feature", "properties": { "FEATURECLA": "Admin-1 capital", "NAME": "Hillerød", "NAME_EN": "Hillerød", "NAME_JA": "ヒレレズ", "id": 371 }, "geometry": { "type": "Point", "coordinates": [ 12.3166985, 55.9332991 ] } },
{ "type": "Feature", "properties": { "FEATURECLA": "Admin-1 capital", "NAME": "Sorø", "NAME_EN": "Sorø", "NAME_JA": "ソレ", "id": 372 }, "geometry": { "type": "Point", "coordinates": [ 11.5667016, 55.4329981 ] } },
{ "type": "Feature", "properties": { "FEATURECLA": "Admin-1 capital", "NAME": "Mali", "NAME_EN": "Mali", "NAME_JA": "マリ", "id": 373 }, "geometry": { "type": "Point", "coordinates": [ -12.3010014, 12.084003 ] } },
{ "type": "Feature", "properties": { "FEATURECLA": "Admin-1 capital", "NAME": "Tongue", "NAME_EN": "Tougué", "NAME_JA": "トゥーゲ", "id": 374 }, "geometry": { "type": "Point", "coordinates": [ -11.6700025, 11.439999 ] } },
{ "type": "Feature", "properties": { "FEATURECLA": "Admin-1 capital", "NAME": "Kouroussa", "NAME_EN": "Kouroussa", "NAME_JA": "クールーサ", "id": 375 }, "geometry": { "type": "Point", "coordinates": [ -9.8919985, 10.6530031 ] } },
{ "type": "Feature", "properties": { "FEATURECLA": "Admin-1 capital", "NAME": "Pita", "NAME_EN": "Pita", "NAME_JA": "ピタ", "id": 376 }, "geometry": { "type": "Point", "coordinates": [ -12.4010006, 11.0799991 ] } },
{ "type": "Feature", "properties": { "FEATURECLA": "Admin-1 capital", "NAME": "Dalaba", "NAME_EN": "Dalaba", "NAME_JA": "ダラバ", "id": 377 }, "geometry": { "type": "Point", "coordinates": [ -12.2720036, 10.656 ] } },
{ "type": "Feature", "properties": { "FEATURECLA": "Admin-1 capital", "NAME": "Boffa", "NAME_EN": "Boffa", "NAME_JA": "ボッファ", "id": 378 }, "geometry": { "type": "Point", "coordinates": [ -14.0429964, 10.1850031 ] } },
{ "type": "Feature", "properties": { "FEATURECLA": "Admin-1 capital", "NAME": "Koundara", "NAME_EN": "Koundara", "NAME_JA": "クンダラ", "id": 379 }, "geometry": { "type": "Point", "coordinates": [ -13.2959964, 12.4800031 ] } },
{ "type": "Feature", "properties": { "FEATURECLA": "Admin-1 capital", "NAME": "Gaoual", "NAME_EN": "Gaoual", "NAME_JA": "ガワール", "id": 380 }, "geometry": { "type": "Point", "coordinates": [ -13.2129984, 11.7540001 ] } },
{ "type": "Feature", "properties": { "FEATURECLA": "Admin-1 capital", "NAME": "Télimélé", "NAME_EN": "Télimélé", "NAME_JA": "テリメレ", "id": 381 }, "geometry": { "type": "Point", "coordinates": [ -13.0429976, 10.9050031 ] } },
{ "type": "Feature", "properties": { "FEATURECLA": "Admin-1 capital", "NAME": "Forecariah", "NAME_EN": "Forécariah", "NAME_JA": "フォレカリア", "id": 382 }, "geometry": { "type": "Point", "coordinates": [ -13.0979966, 9.4300021 ] } },
{ "type": "Feature", "properties": { "FEATURECLA": "Admin-1 capital", "NAME": "Beyla", "NAME_EN": "Beyla", "NAME_JA": "ベイラ", "id": 383 }, "geometry": { "type": "Point", "coordinates": [ -8.6570005, 8.686998 ] } },
{ "type": "Feature", "properties": { "FEATURECLA": "Admin-1 capital", "NAME": "Gueckedou", "NAME_EN": "Guéckédougou", "NAME_JA": "ゲケドゥ", "id": 384 }, "geometry": { "type": "Point", "coordinates": [ -10.1510005, 8.5539961 ] } },
{ "type": "Feature", "properties": { "FEATURECLA": "Admin-1 capital", "NAME": "Dinguiraye", "NAME_EN": "Dinguiraye", "NAME_JA": "ディンギラエ", "id": 385 }, "geometry": { "type": "Point", "coordinates": [ -10.7260014, 11.298996 ] } },
{ "type": "Feature", "properties": { "FEATURECLA": "Admin-1 capital", "NAME": "Dabola", "NAME_EN": "Dabola", "NAME_JA": "ダボラ", "id": 386 }, "geometry": { "type": "Point", "coordinates": [ -11.1089965, 10.747998 ] } },
{ "type": "Feature", "properties": { "FEATURECLA": "Admin-1 capital", "NAME": "Touba", "NAME_EN": "Touba", "NAME_JA": "トゥーバ", "id": 387 }, "geometry": { "type": "Point", "coordinates": [ -7.6840015, 8.28 ] } },
{ "type": "Feature", "properties": { "FEATURECLA": "Admin-1 capital", "NAME": "Bouaflé", "NAME_EN": "Bouaflé", "NAME_JA": "ブアフレ", "id": 388 }, "geometry": { "type": "Point", "coordinates": [ -5.7480024, 6.9779971 ] } },
{ "type": "Feature", "properties": { "FEATURECLA": "Admin-1 capital", "NAME": "Divo", "NAME_EN": "Divo", "NAME_JA": "ディボ", "id": 389 }, "geometry": { "type": "Point", "coordinates": [ -5.3600035, 5.839002 ] } },
{ "type": "Feature", "properties": { "FEATURECLA": "Admin-1 capital", "NAME": "Toumodi", "NAME_EN": "Toumodi-Sakassou", "NAME_JA": "トゥモディ", "id": 390 }, "geometry": { "type": "Point", "coordinates": [ -5.0190024, 6.5520001 ] } },
{ "type": "Feature", "properties": { "FEATURECLA": "Admin-1 capital", "NAME": "Aboisso", "NAME_EN": "Aboisso", "NAME_JA": "アボイッソ", "id": 391 }, "geometry": { "type": "Point", "coordinates": [ -3.2000035, 5.4666991 ] } },
{ "type": "Feature", "properties": { "FEATURECLA": "Admin-1 capital", "NAME": "Santa Cruz Del Quiche", "NAME_EN": "Santa Cruz del Quiché", "NAME_JA": "サンタ・クルス・デル・キチェ", "id": 392 }, "geometry": { "type": "Point", "coordinates": [ -91.1332976, 15.0333031 ] } },
{ "type": "Feature", "properties": { "FEATURECLA": "Admin-1 capital", "NAME": "Buea", "NAME_EN": "Buea", "NAME_JA": "ブエア", "id": 393 }, "geometry": { "type": "Point", "coordinates": [ 9.2310035, 4.1550031 ] } },
{ "type": "Feature", "properties": { "FEATURECLA": "Admin-1 capital", "NAME": "Krujë", "NAME_EN": "Krujë", "NAME_JA": "クルヤ", "id": 394 }, "geometry": { "type": "Point", "coordinates": [ 19.7970036, 41.5189982 ] } },
{ "type": "Feature", "properties": { "FEATURECLA": "Admin-1 capital", "NAME": "Fier", "NAME_EN": "Fier", "NAME_JA": "フィエル", "id": 395 }, "geometry": { "type": "Point", "coordinates": [ 19.5730026, 40.730004 ] } },
{ "type": "Feature", "properties": { "FEATURECLA": "Admin-1 capital", "NAME": "Lushnjë", "NAME_EN": "Lushnjë", "NAME_JA": "ルシュニャ", "id": 396 }, "geometry": { "type": "Point", "coordinates": [ 19.7160035, 40.9400011 ] } },
{ "type": "Feature", "properties": { "FEATURECLA": "Admin-1 capital", "NAME": "Pukë", "NAME_EN": "Pukë", "NAME_JA": "プカ", "id": 397 }, "geometry": { "type": "Point", "coordinates": [ 19.8833045, 42.033303 ] } },
{ "type": "Feature", "properties": { "FEATURECLA": "Admin-1 capital", "NAME": "Bajram Curri", "NAME_EN": "Bajram Curri", "NAME_JA": "バイラム・ツリ", "id": 398 }, "geometry": { "type": "Point", "coordinates": [ 20.0833026, 42.3333001 ] } },
{ "type": "Feature", "properties": { "FEATURECLA": "Admin-1 capital", "NAME": "Kukës", "NAME_EN": "Kukës", "NAME_JA": "クケス", "id": 399 }, "geometry": { "type": "Point", "coordinates": [ 20.4339965, 42.0830011 ] } },
{ "type": "Feature", "properties": { "FEATURECLA": "Admin-1 capital", "NAME": "Sarandë", "NAME_EN": "Saranda", "NAME_JA": "サランダ", "id": 400 }, "geometry": { "type": "Point", "coordinates": [ 19.9999986, 39.8770021 ] } },
{ "type": "Feature", "properties": { "FEATURECLA": "Admin-1 capital", "NAME": "Ersekë", "NAME_EN": "Ersekë", "NAME_JA": "エルセカ", "id": 401 }, "geometry": { "type": "Point", "coordinates": [ 20.6832965, 40.3333021 ] } },
{ "type": "Feature", "properties": { "FEATURECLA": "Admin-1 capital", "NAME": "Pogradec", "NAME_EN": "Pogradec", "NAME_JA": "ポグラデツ", "id": 402 }, "geometry": { "type": "Point", "coordinates": [ 20.6640006, 40.8999961 ] } },
{ "type": "Feature", "properties": { "FEATURECLA": "Admin-1 capital", "NAME": "Korçë", "NAME_EN": "Korçë", "NAME_JA": "コルチャ", "id": 403 }, "geometry": { "type": "Point", "coordinates": [ 20.7666635, 40.616676 ] } },
{ "type": "Feature", "properties": { "FEATURECLA": "Admin-1 capital", "NAME": "Berat", "NAME_EN": "Berat", "NAME_JA": "ベラト", "id": 404 }, "geometry": { "type": "Point", "coordinates": [ 19.9719996, 40.709997 ] } },
{ "type": "Feature", "properties": { "FEATURECLA": "Admin-1 capital", "NAME": "Çorovodë", "NAME_EN": "Çorovodë", "NAME_JA": "ソロボーデ", "id": 405 }, "geometry": { "type": "Point", "coordinates": [ 20.2332966, 40.516704 ] } },
{ "type": "Feature", "properties": { "FEATURECLA": "Admin-1 capital", "NAME": "Gramsh", "NAME_EN": "Gramsh", "NAME_JA": "グラムシ", "id": 406 }, "geometry": { "type": "Point", "coordinates": [ 20.1999965, 40.866696 ] } },
{ "type": "Feature", "properties": { "FEATURECLA": "Admin-1 capital", "NAME": "Librazhd", "NAME_EN": "Librazhd", "NAME_JA": "リブラジュド", "id": 407 }, "geometry": { "type": "Point", "coordinates": [ 20.3667036, 41.2000021 ] } },
{ "type": "Feature", "properties": { "FEATURECLA": "Admin-1 capital", "NAME": "Tepelenë", "NAME_EN": "Tepelenë", "NAME_JA": "テペレナ", "id": 408 }, "geometry": { "type": "Point", "coordinates": [ 20.0332985, 40.2832981 ] } },
{ "type": "Feature", "properties": { "FEATURECLA": "Admin-1 capital", "NAME": "Përmet", "NAME_EN": "Përmet", "NAME_JA": "ペルメット", "id": 409 }, "geometry": { "type": "Point", "coordinates": [ 20.3519976, 40.233996 ] } },
{ "type": "Feature", "properties": { "FEATURECLA": "Admin-1 capital", "NAME": "Gjirokastër", "NAME_EN": "Gjirokastër", "NAME_JA": "ジロカストラ", "id": 410 }, "geometry": { "type": "Point", "coordinates": [ 20.1490026, 40.0789981 ] } },
{ "type": "Feature", "properties": { "FEATURECLA": "Admin-1 capital", "NAME": "Peshkopi", "NAME_EN": "Peshkopi", "NAME_JA": "ペシュコピ", "id": 411 }, "geometry": { "type": "Point", "coordinates": [ 20.4333035, 41.6833021 ] } },
{ "type": "Feature", "properties": { "FEATURECLA": "Admin-1 capital", "NAME": "Burrel", "NAME_EN": "Burrel", "NAME_JA": "ブレル", "id": 412 }, "geometry": { "type": "Point", "coordinates": [ 20.0160005, 41.6259991 ] } },
{ "type": "Feature", "properties": { "FEATURECLA": "Admin-1 capital", "NAME": "Lezhë", "NAME_EN": "Lezhë", "NAME_JA": "レジャ", "id": 413 }, "geometry": { "type": "Point", "coordinates": [ 19.6540025, 41.7879991 ] } },
{ "type": "Feature", "properties": { "FEATURECLA": "Admin-1 capital", "NAME": "Rrëshen", "NAME_EN": "Rrëshen", "NAME_JA": "レシェン", "id": 414 }, "geometry": { "type": "Point", "coordinates": [ 19.8167046, 41.7833011 ] } },
{ "type": "Feature", "properties": { "FEATURECLA": "Admin-1 capital", "NAME": "Ashtarak", "NAME_EN": "Ashtarak", "NAME_JA": "アシュタラク", "id": 415 }, "geometry": { "type": "Point", "coordinates": [ 44.3591667, 40.3016667 ] } },
{ "type": "Feature", "properties": { "FEATURECLA": "Admin-1 capital", "NAME": "Mons", "NAME_EN": "Mons", "NAME_JA": "モンス", "id": 416 }, "geometry": { "type": "Point", "coordinates": [ 3.9390036, 50.4459991 ] } },
{ "type": "Feature", "properties": { "FEATURECLA": "Admin-1 capital", "NAME": "Hasselt", "NAME_EN": "Hasselt", "NAME_JA": "ハッセルト", "id": 417 }, "geometry": { "type": "Point", "coordinates": [ 5.338536386219118, 50.928838164664029 ] } },
{ "type": "Feature", "properties": { "FEATURECLA": "Admin-1 capital", "NAME": "Ijevan", "NAME_EN": "Ijevan", "NAME_JA": "イジェヴァン", "id": 418 }, "geometry": { "type": "Point", "coordinates": [ 45.1491667, 40.8755556 ] } },
{ "type": "Feature", "properties": { "FEATURECLA": "Admin-1 capital", "NAME": "Artashat", "NAME_EN": "Artashat", "NAME_JA": "アルタシャト", "id": 419 }, "geometry": { "type": "Point", "coordinates": [ 44.5505556, 39.9538889 ] } },
{ "type": "Feature", "properties": { "FEATURECLA": "Admin-1 capital", "NAME": "Gavarr", "NAME_EN": "Gavar", "NAME_JA": "ガバル", "id": 420 }, "geometry": { "type": "Point", "coordinates": [ 45.1266667, 40.3588889 ] } },
{ "type": "Feature", "properties": { "FEATURECLA": "Admin-1 capital", "NAME": "Gadabay", "NAME_EN": "Gədəbəy", "NAME_JA": "ギャダベイ", "id": 421 }, "geometry": { "type": "Point", "coordinates": [ 45.8161111, 40.5655556 ] } },
{ "type": "Feature", "properties": { "FEATURECLA": "Admin-1 capital", "NAME": "Goranboy", "NAME_EN": "Goranboy", "NAME_JA": "ゴランボイ県", "id": 422 }, "geometry": { "type": "Point", "coordinates": [ 46.7897222, 40.6102778 ] } },
{ "type": "Feature", "properties": { "FEATURECLA": "Admin-1 capital", "NAME": "Tovuz", "NAME_EN": "Tovuz", "NAME_JA": "トヴズ", "id": 423 }, "geometry": { "type": "Point", "coordinates": [ 45.6288889, 40.9922222 ] } },
{ "type": "Feature", "properties": { "FEATURECLA": "Historic place", "NAME": "Agdam", "NAME_EN": "Ağdam", "NAME_JA": "アグダム", "id": 424 }, "geometry": { "type": "Point", "coordinates": [ 45.5563889, 40.9052778 ] } },
{ "type": "Feature", "properties": { "FEATURECLA": "Admin-1 capital", "NAME": "Qabala", "NAME_EN": "Qabala", "NAME_JA": "カバラ", "id": 425 }, "geometry": { "type": "Point", "coordinates": [ 47.8458333, 40.9813889 ] } },
{ "type": "Feature", "properties": { "FEATURECLA": "Admin-1 capital", "NAME": "Oğuz", "NAME_EN": "Oğuz", "NAME_JA": "オグズ", "id": 426 }, "geometry": { "type": "Point", "coordinates": [ 47.4583333, 41.0708333 ] } },
{ "type": "Feature", "properties": { "FEATURECLA": "Admin-1 capital", "NAME": "Yeghegnadzor", "NAME_EN": "Yeghegnadzor", "NAME_JA": "イェゲグナゾル", "id": 427 }, "geometry": { "type": "Point", "coordinates": [ 45.3333333, 39.7611111 ] } },
{ "type": "Feature", "properties": { "FEATURECLA": "Admin-1 capital", "NAME": "Qala i Naw", "NAME_EN": "Qala i Naw", "NAME_JA": "カラエナウ", "id": 428 }, "geometry": { "type": "Point", "coordinates": [ 63.1332996, 34.9830001 ] } },
{ "type": "Feature", "properties": { "FEATURECLA": "Admin-1 capital", "NAME": "Chaghcharan", "NAME_EN": "Chaghcharan", "NAME_JA": "チャグチャラーン", "id": 429 }, "geometry": { "type": "Point", "coordinates": [ 65.2500006, 34.5167011 ] } },
{ "type": "Feature", "properties": { "FEATURECLA": "Admin-1 capital", "NAME": "Lashkar Gah", "NAME_EN": "Lashkar Gah", "NAME_JA": "ラシュカルガー", "id": 430 }, "geometry": { "type": "Point", "coordinates": [ 64.3599996, 31.582998 ] } },
{ "type": "Feature", "properties": { "FEATURECLA": "Admin-1 capital", "NAME": "Zaranj", "NAME_EN": "Zaranj", "NAME_JA": "ザランジ", "id": 431 }, "geometry": { "type": "Point", "coordinates": [ 61.8869975, 31.1120011 ] } },
{ "type": "Feature", "properties": { "FEATURECLA": "Admin-1 capital", "NAME": "Tarin Kowt", "NAME_EN": "Tarinkot", "NAME_JA": "タリーン・コート", "id": 432 }, "geometry": { "type": "Point", "coordinates": [ 65.8666986, 32.6332982 ] } },
{ "type": "Feature", "properties": { "FEATURECLA": "Admin-1 capital", "NAME": "Zareh Sharan", "NAME_EN": "Zarghun Shar", "NAME_JA": "ザレシャラン", "id": 433 }, "geometry": { "type": "Point", "coordinates": [ 68.4167045, 32.8500002 ] } },
{ "type": "Feature", "properties": { "FEATURECLA": "Admin-1 capital", "NAME": "Asadabad", "NAME_EN": "Asadabad", "NAME_JA": "アサダーバード", "id": 434 }, "geometry": { "type": "Point", "coordinates": [ 71.1500046, 34.866 ] } },
{ "type": "Feature", "properties": { "FEATURECLA": "Admin-1 capital", "NAME": "Taloqan", "NAME_EN": "Taloqan", "NAME_JA": "タロカン", "id": 435 }, "geometry": { "type": "Point", "coordinates": [ 69.5400036, 36.729999 ] } },
{ "type": "Feature", "properties": { "FEATURECLA": "Admin-1 capital", "NAME": "Mahmud-E Eraqi", "NAME_EN": "Mahmud-i-Raqi", "NAME_JA": "マームディラキ", "id": 436 }, "geometry": { "type": "Point", "coordinates": [ 69.3333006, 35.0166961 ] } },
{ "type": "Feature", "properties": { "FEATURECLA": "Admin-1 capital", "NAME": "Mehtar Lam", "NAME_EN": "Mihtarlam", "NAME_JA": "メフタルラーム", "id": 437 }, "geometry": { "type": "Point", "coordinates": [ 70.1667005, 34.65 ] } },
{ "type": "Feature", "properties": { "FEATURECLA": "Admin-1 capital", "NAME": "Baraki Barak", "NAME_EN": "Baraki Barak", "NAME_JA": "バラキバラク", "id": 438 }, "geometry": { "type": "Point", "coordinates": [ 68.9667035, 33.9667021 ] } },
{ "type": "Feature", "properties": { "FEATURECLA": "Admin-1 capital", "NAME": "Aybak", "NAME_EN": "Samangan", "NAME_JA": "サマンガーン", "id": 439 }, "geometry": { "type": "Point", "coordinates": [ 68.0400005, 36.2610001 ] } },
{ "type": "Feature", "properties": { "FEATURECLA": "Admin-1 capital", "NAME": "Mayda Shahr", "NAME_EN": "Maidan Shar", "NAME_JA": "マイダーンシャー", "id": 440 }, "geometry": { "type": "Point", "coordinates": [ 68.7999966, 34.4500021 ] } },
{ "type": "Feature", "properties": { "FEATURECLA": "Admin-1 capital", "NAME": "Kampong Spoe", "NAME_EN": "Kam", "NAME_JA": "コンポンスプー", "id": 441 }, "geometry": { "type": "Point", "coordinates": [ 104.5189986, 11.4519961 ] } },
{ "type": "Feature", "properties": { "FEATURECLA": "Admin-1 capital", "NAME": "Kampong Thum", "NAME_EN": "Kampong Thom", "NAME_JA": "コンポントム", "id": 442 }, "geometry": { "type": "Point", "coordinates": [ 104.8889977, 12.7119961 ] } },
{ "type": "Feature", "properties": { "FEATURECLA": "Admin-1 capital", "NAME": "Prey Veng", "NAME_EN": "Prey Veng", "NAME_JA": "プレイベン", "id": 443 }, "geometry": { "type": "Point", "coordinates": [ 105.3240036, 11.484 ] } },